Name;CodIBGE;Categoria;Longitude;Latitude
BARRA DO QUARAÍ;4301875;CIDADE;-57.5570603248122;-30.2110754071007
URUGUAIANA;4322400;CIDADE;-57.0818249090229;-29.7598231712009
QUARAÍ;4315305;CIDADE;-56.4536470403836;-30.3828679600575
SANT'ANA DO LIVRAMENTO;4317103;CIDADE;-55.5348142679597;-30.8893840103812
ITAQUI;4310603;CIDADE;-56.55713349703041;-29.128636898258
ALEGRETE;4300406;CIDADE;-55.7958701453331;-29.78204320831051
MAÇAMBARÁ;4311718;CIDADE;-56.06361348173561;-29.146144198381
CHUÍ;4305439;CIDADE;-53.4626751416843;-33.6875668678584
SANTA VITÓRIA DO PALMAR;4317301;CIDADE;-53.3670063807333;-33.5198600298257
JAGUARÃO;4311007;CIDADE;-53.3775229153129;-32.5635686676586
ACEGUÁ;4300034;CIDADE;-54.1647315363634;-31.8640153034157
BAGÉ;4301602;CIDADE;-54.10708328517;-31.3305018407089
HULHA NEGRA;4309654;CIDADE;-53.8678247940087;-31.4050982475474
CANDIOTA;4304358;CIDADE;-53.6778046425127;-31.5610097227116
HERVAL;4307104;CIDADE;-53.3943378608911;-32.0267435503097
ARROIO GRANDE;4301305;CIDADE;-53.0822483482181;-32.2363441248154
PEDRAS ALTAS;4314175;CIDADE;-53.58717031963959;-31.7336369386265
PINHEIRO MACHADO;4314506;CIDADE;-53.38461996827739;-31.5805926678521
PIRATINI;4314605;CIDADE;-53.10473445397211;-31.4441124725134
ROSÁRIO DO SUL;4316402;CIDADE;-54.9457608552519;-30.2440332369883
DOM PEDRITO;4306601;CIDADE;-54.6741301838237;-30.9812670559179
SÃO GABRIEL;4318309;CIDADE;-54.3204778581076;-30.3367600540284
MANOEL VIANA;4311759;CIDADE;-55.491662539453;-29.5805371818348
SÃO FRANCISCO DE ASSIS;4318101;CIDADE;-55.1323857402451;-29.5527159059282
UNISTALDA;4322376;CIDADE;-55.1507805181379;-29.0474850247827
CACEQUI;4302907;CIDADE;-54.8277276903362;-29.8802876596639
SÃO VICENTE DO SUL;4319802;CIDADE;-54.6760020162093;-29.6920608336535
JAGUARI;4311106;CIDADE;-54.6938466713292;-29.4973467304063
MATA;4312104;CIDADE;-54.4524354819352;-29.5693917747432
NOVA ESPERANÇA DO SUL;4313037;CIDADE;-54.8358729018542;-29.40459570782
SANTIAGO;4317400;CIDADE;-54.86907585378861;-29.1914601700905
CAPÃO DO CIPÓ;4304655;CIDADE;-54.5546989999907;-28.9316275187548
LAVRAS DO SUL;4311502;CIDADE;-53.8984766554676;-30.8120099922089
SANTA MARGARIDA DO SUL;4316972;CIDADE;-54.09095467035859;-30.3451034500873
VILA NOVA DO SUL;4323457;CIDADE;-53.879196483097;-30.333958688345
SANTANA DA BOA VISTA;4317004;CIDADE;-53.1158749986991;-30.8747025731301
CAÇAPAVA DO SUL;4302808;CIDADE;-53.4875689200414;-30.5147432332542
SÃO SEPÉ;4319604;CIDADE;-53.5696441253718;-30.1674113888932
DILERMANDO DE AGUIAR;4306379;CIDADE;-54.21356038450211;-29.7019639089413
SÃO PEDRO DO SUL;4319406;CIDADE;-54.1799912875495;-29.6175307553829
SANTA MARIA;4316907;CIDADE;-53.8086753946629;-29.6855818027334
SÃO MARTINHO DA SERRA;4319125;CIDADE;-53.8542256318643;-29.5348505675058
ITAARA;4310538;CIDADE;-53.75784924900451;-29.602887953933
TOROPI;4321493;CIDADE;-54.22801099673821;-29.472141699946
JARI;4311130;CIDADE;-54.219935820282;-29.2900810960349
QUEVEDOS;4315321;CIDADE;-54.07125472235081;-29.3519213491659
JÚLIO DE CASTILHOS;4311205;CIDADE;-53.683099614611;-29.2264491184703
TUPANCIRETÃ;4322202;CIDADE;-53.8406300553464;-29.0774797292461
FORMIGUEIRO;4308409;CIDADE;-53.50029441494449;-29.9976338146029
RESTINGA SECA;4315503;CIDADE;-53.3705685765474;-29.8139485358844
SILVEIRA MARTINS;4320651;CIDADE;-53.58523747361191;-29.6452500577358
IVORÁ;4310751;CIDADE;-53.5808856194398;-29.5195344835242
SÃO JOÃO DO POLÊSINE;4318432;CIDADE;-53.4463504348062;-29.6146764155532
FAXINAL DO SOTURNO;4308003;CIDADE;-53.43906481970581;-29.5743295389602
DONA FRANCISCA;4306700;CIDADE;-53.36233318078499;-29.6248524905359
AGUDO;4300109;CIDADE;-53.2586916877151;-29.645663362438
PARAÍSO DO SUL;4314027;CIDADE;-53.17910023895459;-29.7313142393347
LAGOA BONITA DO SUL;4311239;CIDADE;-53.01698318078349;-29.4941313996333
NOVA PALMA;4313102;CIDADE;-53.4706351108828;-29.4730257371419
PINHAL GRANDE;4314472;CIDADE;-53.3386383371448;-29.3353601281098
IBARAMA;4309753;CIDADE;-53.1332000129437;-29.4207443602758
ESTRELA VELHA;4307815;CIDADE;-53.1602937786865;-29.1796613608976
ARROIO DO TIGRE;4301206;CIDADE;-53.0863955671765;-29.3358596124972
SOBRADINHO;4320701;CIDADE;-53.0251679436161;-29.4147731333216
SEGREDO;4320263;CIDADE;-52.9820736412151;-29.3426184265204
SALTO DO JACUÍ;4316451;CIDADE;-53.2133096524064;-29.0886812470148
JACUIZINHO;4310876;CIDADE;-53.0565506587969;-29.0338163553105
CAMPOS BORGES;4304101;CIDADE;-52.99891473322801;-28.8921317665278
SÃO BORJA;4318002;CIDADE;-56.0010291536185;-28.6628375259
GARRUCHOS;4308656;CIDADE;-55.6340719501044;-28.1894767892825
ITACURUBI;4310553;CIDADE;-55.23272326405159;-28.8022050322898
SANTO ANTÔNIO DAS MISSÕES;4317707;CIDADE;-55.2245566426344;-28.5080969767999
BOSSOROCA;4302501;CIDADE;-54.9098109252545;-28.730724329428
SÃO LUIZ GONZAGA;4318903;CIDADE;-54.9596595493639;-28.4066469522193
SÃO NICOLAU;4319208;CIDADE;-55.26010023202801;-28.1821546925196
PIRAPÓ;4314555;CIDADE;-55.2003099472118;-28.0453158368443
DEZESSEIS DE NOVEMBRO;4306353;CIDADE;-55.04820850203991;-28.2268764427117
ROQUE GONZALES;4316303;CIDADE;-55.0291861243459;-28.1353669861098
SÃO PAULO DAS MISSÕES;4319307;CIDADE;-54.93470834225239;-28.0204849091791
PORTO XAVIER;4315107;CIDADE;-55.139560262016;-27.9056898461534
PORTO LUCENA;4315008;CIDADE;-55.0115620452524;-27.8513751151926
PORTO VERA CRUZ;4315073;CIDADE;-54.8990318240447;-27.7343739186307
CAIBATÉ;4303301;CIDADE;-54.63788670420869;-28.2910748183788
SÃO MIGUEL DAS MISSÕES;4319158;CIDADE;-54.5615630937001;-28.5495371207205
VITÓRIA DAS MISSÕES;4323754;CIDADE;-54.4990548870704;-28.352387248462
ENTRE-IJUÍS;4306932;CIDADE;-54.2714318511947;-28.3627942771102
SANTO ÂNGELO;4317509;CIDADE;-54.2641427984269;-28.3019378725592
ROLADOR;4315958;CIDADE;-54.81942697541041;-28.2563442165406
SÃO PEDRO DO BUTIÁ;4319372;CIDADE;-54.8882559534463;-28.1243539010572
SALVADOR DAS MISSÕES;4316477;CIDADE;-54.8377420188123;-28.1216974443491
CERRO LARGO;4305207;CIDADE;-54.7399972398551;-28.1478408761664
CAMPINA DAS MISSÕES;4303707;CIDADE;-54.8453289508288;-27.9916900276177
MATO QUEIMADO;4312179;CIDADE;-54.6168368777268;-28.2558159862253
UBIRETAMA;4322343;CIDADE;-54.68451077622811;-28.0435647649493
CÂNDIDO GODÓI;4304309;CIDADE;-54.7528340428941;-27.9513180673193
ALECRIM;4300307;CIDADE;-54.7670962217407;-27.6610744570253
SANTO CRISTO;4317905;CIDADE;-54.66874789529041;-27.8199297338217
GUARANI DAS MISSÕES;4309506;CIDADE;-54.56055592966089;-28.1417792565601
SETE DE SETEMBRO;4320578;CIDADE;-54.4636861823155;-28.130416322586
SENADOR SALGADO FILHO;4320321;CIDADE;-54.5454030325181;-28.0274895006135
GIRUÁ;4309001;CIDADE;-54.3508400776839;-28.02974437211361
SANTA ROSA;4317202;CIDADE;-54.4782240987609;-27.8667497981428
TUPARENDI;4322301;CIDADE;-54.47850807532731;-27.7540889265205
PORTO MAUÁ;4315057;CIDADE;-54.671951891498;-27.5786353592823
NOVO MACHADO;4313425;CIDADE;-54.5033844145301;-27.5784006498033
TUCUNDUVA;4322103;CIDADE;-54.43312866883421;-27.6500599325816
DOUTOR MAURÍCIO CARDOSO;4306734;CIDADE;-54.3582679905268;-27.509212612939
HORIZONTINA;4309605;CIDADE;-54.3087915108958;-27.6300969129048
JÓIA;4311155;CIDADE;-54.11596489702111;-28.6456235338337
EUGÊNIO DE CASTRO;4307831;CIDADE;-54.1481126184862;-28.5250597618185
AUGUSTO PESTANA;4301503;CIDADE;-53.98947008072259;-28.5133519883222
CORONEL BARROS;4305871;CIDADE;-54.0736624302888;-28.3845408578866
BOA VISTA DO CADEADO;4302220;CIDADE;-53.81373463511491;-28.5774344746874
IJUÍ;4310207;CIDADE;-53.918066835708;-28.3885365401951
BOZANO;4302584;CIDADE;-53.7724021387641;-28.3662899394048
PEJUÇARA;4314308;CIDADE;-53.6565423317738;-28.421586063368
CATUÍPE;4305009;CIDADE;-54.0123868476744;-28.2542344716743
INDEPENDÊNCIA;4310405;CIDADE;-54.1881083345896;-27.847331557287
TRÊS DE MAIO;4321808;CIDADE;-54.23530220754671;-27.7796602181189
SÃO JOSÉ DO INHACORÁ;4318499;CIDADE;-54.133550202739;-27.7225845665545
BOA VISTA DO BURICÁ;4302204;CIDADE;-54.1094812552698;-27.671566996006
INHACORÁ;4310413;CIDADE;-54.012545591408;-27.8804544575624
ALEGRIA;4300455;CIDADE;-54.0573664131385;-27.8372999555906
CHIAPETTA;4305405;CIDADE;-53.9457497023822;-27.9173647532266
SÃO VALÉRIO DO SUL;4319737;CIDADE;-53.9355261513435;-27.7877181691053
SÃO MARTINHO;4319109;CIDADE;-53.9669227230418;-27.7089288013511
AJURICABA;4300208;CIDADE;-53.77281888998731;-28.2377290059022
NOVA RAMADA;4313334;CIDADE;-53.7069373378916;-28.082644871621
SANTO AUGUSTO;4317806;CIDADE;-53.7788495982932;-27.8534907756234
CAMPO NOVO;4304002;CIDADE;-53.8028138686737;-27.6744926094406
CORONEL BICACO;4305900;CIDADE;-53.70912810650141;-27.7178730188616
REDENTORA;4315404;CIDADE;-53.64193369399529;-27.6615398818935
CRUZ ALTA;4306106;CIDADE;-53.6052407621196;-28.6424466076948
BOA VISTA DO INCRA;4302238;CIDADE;-53.3887049606029;-28.8184880332213
PANAMBI;4313904;CIDADE;-53.5002651674452;-28.2927305361369
FORTALEZA DOS VALOS;4308458;CIDADE;-53.2355232639118;-28.7878829701972
QUINZE DE NOVEMBRO;4315354;CIDADE;-53.09672205678179;-28.7423613491272
ALTO ALEGRE;4300554;CIDADE;-52.9907552806891;-28.7747455362725
IBIRUBÁ;4310009;CIDADE;-53.08835401952331;-28.627607781644
SANTA BÁRBARA DO SUL;4316709;CIDADE;-53.25052670755039;-28.3651668159572
COLORADO;4305603;CIDADE;-52.9931763194633;-28.5229477591022
SALDANHA MARINHO;4316436;CIDADE;-53.0941072015607;-28.4032861698965
CONDOR;4305702;CIDADE;-53.48894333085291;-28.2052957745073
DOIS IRMÃOS DAS MISSÕES;4306429;CIDADE;-53.5308646235229;-27.6575367306726
PALMEIRA DAS MISSÕES;4313706;CIDADE;-53.3149539105514;-27.900620874651
BOA VISTA DAS MISSÕES;4302154;CIDADE;-53.31275639375811;-27.666111034262
CHAPADA;4305306;CIDADE;-53.0672769044206;-28.0584504604556
NOVA BOA VISTA;4312955;CIDADE;-52.9814768438008;-27.9879676583412
SÃO PEDRO DAS MISSÕES;4319364;CIDADE;-53.24736897885261;-27.7713084599705
LAJEADO DO BUGRE;4311429;CIDADE;-53.1813871337597;-27.6907694076033
SAGRADA FAMÍLIA;4316428;CIDADE;-53.1356517180311;-27.7067309897243
NOVO BARREIRO;4313490;CIDADE;-53.1134988510144;-27.90678846624491
BARRA FUNDA;4301958;CIDADE;-53.0362966696036;-27.923825844394
SÃO JOSÉ DAS MISSÕES;4318457;CIDADE;-53.1187752690111;-27.7781833172731
NOVO XINGU;4313466;CIDADE;-53.0641092994744;-27.7481146913576
CONSTANTINA;4305801;CIDADE;-52.98773883211369;-27.7304110856673
NOVA CANDELÁRIA;4313011;CIDADE;-54.1041142397608;-27.6120981601716
CRISSIUMAL;4306007;CIDADE;-54.10003490616531;-27.4980122686194
SEDE NOVA;4320230;CIDADE;-53.9558847238338;-27.6311628717037
HUMAITÁ;4309704;CIDADE;-53.9765055737001;-27.5614898153462
TIRADENTES DO SUL;4321477;CIDADE;-54.0853922050406;-27.3968988834236
TRÊS PASSOS;4321907;CIDADE;-53.9296989580111;-27.45615988307
ESPERANÇA DO SUL;4307450;CIDADE;-53.9927678151195;-27.3599436080705
BOM PROGRESSO;4302378;CIDADE;-53.8667908856402;-27.5467742033812
BRAGA;4302600;CIDADE;-53.74432938207521;-27.6191925067591
TENENTE PORTELA;4321402;CIDADE;-53.7572696148981;-27.3721669183435
MIRAGUAÍ;4312302;CIDADE;-53.6859940447681;-27.4960764222926
DERRUBADAS;4306320;CIDADE;-53.8651194603325;-27.2653909355284
VISTA GAÚCHA;4323705;CIDADE;-53.7013197816331;-27.289978374572
PINHEIRINHO DO VALE;4314498;CIDADE;-53.6195609569296;-27.2097627884918
BARRA DO GUARITA;4301859;CIDADE;-53.7144126933058;-27.1880699607268
ITAPIRANGA;4208401;CIDADE;-53.7148020649025;-27.1753750887232
TUNÁPOLIS;4218756;CIDADE;-53.641459736047;-26.972223590726
SANTA HELENA;4215554;CIDADE;-53.6199878739379;-26.9398439228776
BANDEIRANTE;4202081;CIDADE;-53.64104958659;-26.7689379005651
PARAÍSO;4212239;CIDADE;-53.6753141316767;-26.6152629700366
ERVAL SECO;4307302;CIDADE;-53.5095730836612;-27.5494171257352
PALMITINHO;4313805;CIDADE;-53.5555460129883;-27.3560199131671
VISTA ALEGRE;4323507;CIDADE;-53.49241046612481;-27.3700841693036
TAQUARUÇU DO SUL;4321329;CIDADE;-53.46695195961439;-27.3980360501364
SEBERI;4320206;CIDADE;-53.4054673035279;-27.4804138157532
FREDERICO WESTPHALEN;4308508;CIDADE;-53.40077673885141;-27.3588824116103
SÃO JOÃO DO OESTE;4216255;CIDADE;-53.59596667974431;-27.0974826246758
CAIÇARA;4303400;CIDADE;-53.43189548510399;-27.2809406638578
VICENTE DUTRA;4323101;CIDADE;-53.4021290554095;-27.1684450433776
MONDAÍ;4211009;CIDADE;-53.3986840279187;-27.1036116933375
RIQUEZA;4215075;CIDADE;-53.3252862115099;-27.0675941638144
JABOTICABA;4310850;CIDADE;-53.2843894020471;-27.6312223855182
PINHAL;4314456;CIDADE;-53.2147061788915;-27.511674242684
CERRO GRANDE;4305157;CIDADE;-53.1659130764764;-27.6079801339615
NOVO TIRADENTES;4313441;CIDADE;-53.1857025890656;-27.5635584337012
CRISTAL DO SUL;4306072;CIDADE;-53.2491844952574;-27.4536295663969
RODEIO BONITO;4315909;CIDADE;-53.16853060434379;-27.4704034346893
AMETISTA DO SUL;4300646;CIDADE;-53.1921772619969;-27.3564254730142
LIBERATO SALZANO;4311601;CIDADE;-53.0748607372178;-27.5964701630804
IRAÍ;4310504;CIDADE;-53.26429601851491;-27.1922819742509
CAIBI;4203105;CIDADE;-53.2505271955837;-27.0730539317928
PALMITOS;4212106;CIDADE;-53.1622672928949;-27.0702505484029
PLANALTO;4314704;CIDADE;-53.058880813139;-27.331463874696
ALPESTRE;4300505;CIDADE;-53.03736604855119;-27.2487687559215
SÃO CARLOS;4216008;CIDADE;-53.017394273321;-27.0786350771308
ÁGUAS DE CHAPECÓ;4200507;CIDADE;-52.9872510056855;-27.0762129117104
IPORÃ DO OESTE;4207650;CIDADE;-53.5395118843069;-26.9960166785808
BELMONTE;4202156;CIDADE;-53.5809772314809;-26.844586346722
DESCANSO;4204905;CIDADE;-53.5046288706139;-26.8178702202313
FLOR DO SERTÃO;4205357;CIDADE;-53.3448914354815;-26.7794323280009
SÃO MIGUEL DO OESTE;4217204;CIDADE;-53.5188394061561;-26.7264271759021
GUARACIABA;4206405;CIDADE;-53.52208971818379;-26.6003475699992
PRINCESA;4214151;CIDADE;-53.5981058756425;-26.4443352060677
SÃO JOSÉ DO CEDRO;4216701;CIDADE;-53.5001241069131;-26.456060296096
BARRA BONITA;4202099;CIDADE;-53.44130254060449;-26.6522935990991
ROMELÂNDIA;4215208;CIDADE;-53.320158400046;-26.6794635623605
ANCHIETA;4200804;CIDADE;-53.333270177229;-26.5356808599025
CUNHA PORÃ;4204707;CIDADE;-53.1738455719665;-26.8917270816889
IRACEMINHA;4207759;CIDADE;-53.2760577940404;-26.8240650308153
MARAVILHA;4210506;CIDADE;-53.174818815895;-26.7616239465027
CUNHATAÍ;4204756;CIDADE;-53.09329049259039;-26.9731396975643
SAUDADES;4217303;CIDADE;-52.9955697272511;-26.9197569502826
MODELO;4210902;CIDADE;-53.0535007992379;-26.7780420749367
PINHALZINHO;4212908;CIDADE;-52.9822532451308;-26.8488143334593
SÃO MIGUEL DA BOA VISTA;4217154;CIDADE;-53.25455637668019;-26.6944751445592
TIGRINHOS;4217956;CIDADE;-53.1575419839148;-26.6894748370017
SANTA TEREZINHA DO PROGRESSO;4215687;CIDADE;-53.1998469616569;-26.6197755731101
BOM JESUS DO OESTE;4202578;CIDADE;-53.0953502802337;-26.6918115538359
SALTINHO;4215356;CIDADE;-53.05863124892601;-26.6085589188173
SERRA ALTA;4217550;CIDADE;-53.0462763415455;-26.7247733732928
FOZ DO IGUAÇU;4108304;CIDADE;-54.5871024886046;-25.5424932787946
SANTA TEREZINHA DE ITAIPU;4124053;CIDADE;-54.39951873112721;-25.44216051268401
ITAIPULÂNDIA;4110953;CIDADE;-54.3050007423361;-25.1384806502357
SANTA HELENA;4123501;CIDADE;-54.3364531522835;-24.8570958299164
DIONÍSIO CERQUEIRA;4205001;CIDADE;-53.63139512282729;-26.266488532911
BARRACÃO;4102604;CIDADE;-53.6350002652568;-26.2526028434601
SANTO ANTÔNIO DO SUDOESTE;4124400;CIDADE;-53.7230834338629;-26.0749754778129
PRANCHITA;4120358;CIDADE;-53.742622639593;-26.0156642879852
PÉROLA D'OESTE;4119004;CIDADE;-53.740108472608;-25.8282656759615
BELA VISTA DA CAROBA;4102752;CIDADE;-53.6660426284896;-25.8794933215093
SÃO MIGUEL DO IGUAÇU;4125704;CIDADE;-54.242120554007;-25.3488942665276
MEDIANEIRA;4115804;CIDADE;-54.09178212692221;-25.2924974992706
SERRANÓPOLIS DO IGUAÇU;4126355;CIDADE;-54.05837658397481;-25.3798841820512
MATELÂNDIA;4115606;CIDADE;-53.9743873416592;-25.2379210121256
PLANALTO;4119806;CIDADE;-53.770857430338;-25.7121014970234
CAPANEMA;4104501;CIDADE;-53.8001786950115;-25.6829774166965
CAPITÃO LEÔNIDAS MARQUES;4104600;CIDADE;-53.6172110107619;-25.479468483784
GUARUJÁ DO SUL;4206603;CIDADE;-53.5254451083141;-26.3849206032803
BOM JESUS DO SUL;4103156;CIDADE;-53.59959996947019;-26.1928749685172
FLOR DA SERRA DO SUL;4107850;CIDADE;-53.3085976818885;-26.2552988451785
SALGADO FILHO;4122800;CIDADE;-53.3621154225924;-26.1704605179045
MANFRINÓPOLIS;4114351;CIDADE;-53.3125829630542;-26.1437768717995
PINHAL DE SÃO BENTO;4119251;CIDADE;-53.48309044221699;-26.0327285539415
AMPÉRE;4101002;CIDADE;-53.4732567447246;-25.9170684645403
PALMA SOLA;4212007;CIDADE;-53.2799772512092;-26.3465081330525
CAMPO ERÊ;4203501;CIDADE;-53.0901551703376;-26.3945511402537
MARMELEIRO;4115408;CIDADE;-53.0261839782571;-26.1486971922463
RENASCENÇA;4121604;CIDADE;-52.97216201169879;-26.1562209287958
NOVA ESPERANÇA DO SUDOESTE;4116950;CIDADE;-53.2642073185992;-25.8987792075935
ENÉAS MARQUES;4107405;CIDADE;-53.166185268213;-25.9407559819665
FRANCISCO BELTRÃO;4108403;CIDADE;-53.0561357214894;-26.0784499992544
REALEZA;4121406;CIDADE;-53.532574359025;-25.7625799498748
SANTA IZABEL DO OESTE;4123808;CIDADE;-53.4836175358081;-25.8143812176812
SALTO DO LONTRA;4123006;CIDADE;-53.31493510182099;-25.7767652421911
NOVA PRATA DO IGUAÇU;4117255;CIDADE;-53.3479572462114;-25.6318770902275
SANTA LÚCIA;4123824;CIDADE;-53.5711436726035;-25.4113199190377
LINDOESTE;4113452;CIDADE;-53.5771259362793;-25.2559851252331
BOA VISTA DA APARECIDA;4103057;CIDADE;-53.41173648903699;-25.4304049435915
BOA ESPERANÇA DO IGUAÇU;4103024;CIDADE;-53.2171600749416;-25.6358731586601
CRUZEIRO DO IGUAÇU;4106571;CIDADE;-53.1268226637842;-25.6165692695503
DOIS VIZINHOS;4107207;CIDADE;-53.0548359924349;-25.7460100192612
TRÊS BARRAS DO PARANÁ;4127858;CIDADE;-53.1874988005459;-25.4194083187462
MISSAL;4116059;CIDADE;-54.2431753258264;-25.0911596673316
DIAMANTE D'OESTE;4107157;CIDADE;-54.1036264276883;-24.9421618548938
RAMILÂNDIA;4121257;CIDADE;-54.02723703178771;-25.1189865228841
ENTRE RIOS DO OESTE;4107538;CIDADE;-54.2448936714884;-24.7081421694804
PATO BRAGADO;4118451;CIDADE;-54.231395741042;-24.6256440137772
SÃO JOSÉ DAS PALMEIRAS;4125456;CIDADE;-54.0599182790456;-24.8340818666493
CÉU AZUL;4105300;CIDADE;-53.85726938306739;-25.149761208586
VERA CRUZ DO OESTE;4128559;CIDADE;-53.8800300706254;-25.0631701882863
SÃO PEDRO DO IGUAÇU;4125753;CIDADE;-53.8598616786826;-24.9309309241334
SANTA TEREZA DO OESTE;4124020;CIDADE;-53.6272357310511;-25.0587219002295
OURO VERDE DO OESTE;4117453;CIDADE;-53.8995380841541;-24.7707942891292
TOLEDO;4127700;CIDADE;-53.7414114911568;-24.7320769992824
MERCEDES;4115853;CIDADE;-54.1644357171677;-24.4488897638897
MARECHAL CÂNDIDO RONDON;4114609;CIDADE;-54.06000781645311;-24.5592544942861
QUATRO PONTES;4120853;CIDADE;-53.9726991274637;-24.5732085840776
NOVA SANTA ROSA;4117222;CIDADE;-53.955116084308;-24.46476453260181
TERRA ROXA;4127403;CIDADE;-54.0985136359671;-24.1674835253546
GUAÍRA;4108809;CIDADE;-54.2467577203893;-24.0852754792964
MARIPÁ;4115358;CIDADE;-53.8334777829878;-24.4172088385418
PALOTINA;4117909;CIDADE;-53.8387717238929;-24.2794094842922
FRANCISCO ALVES;4108320;CIDADE;-53.84401596715129;-24.0675754036839
IPORÃ;4110607;CIDADE;-53.7180991714403;-24.0025804978362
CASCAVEL;4104808;CIDADE;-53.4597221819856;-24.95379749927771
CORBÉLIA;4106308;CIDADE;-53.2965277769968;-24.7996495152542
CAFELÂNDIA;4103453;CIDADE;-53.32491647843019;-24.6156669754192
CATANDUVAS;4105003;CIDADE;-53.1537063668495;-25.1964932487334
IBEMA;4109757;CIDADE;-53.0231216933671;-25.112867070434
CAMPO BONITO;4104055;CIDADE;-52.9968696036502;-25.03963448206561
ANAHY;4101051;CIDADE;-53.1333198286711;-24.6475824579028
BRAGANEY;4103354;CIDADE;-53.1210736649672;-24.8148946319132
IGUATU;4110052;CIDADE;-53.0860050753783;-24.7112618437246
TUPÃSSI;4127957;CIDADE;-53.51449531483031;-24.5798134081611
ASSIS CHATEAUBRIAND;4102000;CIDADE;-53.5212369274392;-24.4085300842051
JESUÍTAS;4112751;CIDADE;-53.3881148800191;-24.3772489090173
IRACEMA DO OESTE;4110656;CIDADE;-53.358110555243;-24.4290304145846
BRASILÂNDIA DO SUL;4103370;CIDADE;-53.52404181355671;-24.1938462804714
FORMOSA DO OESTE;4108205;CIDADE;-53.31616101073949;-24.2941972130191
ALTO PIQUIRI;4100707;CIDADE;-53.4412490788684;-24.0190125557152
NOVA AURORA;4116703;CIDADE;-53.2575255396178;-24.5284853282826
UBIRATÃ;4128005;CIDADE;-52.9945060158455;-24.5410348842787
MARILUZ;4115101;CIDADE;-53.15152581889491;-24.00373262907191
QUARTO CENTENÁRIO;4120655;CIDADE;-53.0752885848612;-24.2790209170507
GOIOERÊ;4108601;CIDADE;-53.0273189133007;-24.1891883931559
MOREIRA SALES;4116109;CIDADE;-53.01344656966341;-24.0447582362327
VILA BELA DA SANTÍSSIMA TRINDADE;5105507;CIDADE;-59.95255819947811;-15.009324478308
CONQUISTA D'OESTE;5103361;CIDADE;-59.5450742072991;-14.5362728145169
NOVA LACERDA;5106182;CIDADE;-59.5903305027945;-14.4697889935471
PORTO ESPERIDIÃO;5106828;CIDADE;-58.46929874225211;-15.8576348614212
INDIAVAÍ;5104500;CIDADE;-58.5739923860232;-15.4975142290697
GLÓRIA D'OESTE;5103957;CIDADE;-58.31448558872399;-15.7679623090543
SÃO JOSÉ DOS QUATRO MARCOS;5107107;CIDADE;-58.176505937373;-15.6271057361822
PONTES E LACERDA;5106752;CIDADE;-59.3380018443657;-15.2297275706311
VALE DE SÃO DOMINGOS;5108352;CIDADE;-59.06457115722701;-15.2958978413495
JAURU;5105002;CIDADE;-58.8798383973631;-15.3418963810325
FIGUEIRÓPOLIS D'OESTE;5103809;CIDADE;-58.7378245488632;-15.4461351141469
ARAPUTANGA;5101258;CIDADE;-58.3483671518683;-15.4681442691829
RIO BRANCO;5107206;CIDADE;-58.1179393479916;-15.2356828096646
RESERVA DO CABAÇAL;5107156;CIDADE;-58.3853645299516;-15.1224095307099
SALTO DO CÉU;5107750;CIDADE;-58.1267518070165;-15.1358245742926
PORTO MURTINHO;5006903;CIDADE;-57.8884823022607;-21.707324558183
CARACOL;5002803;CIDADE;-57.0259387643523;-22.0127382885385
CORONEL SAPUCAIA;5003157;CIDADE;-55.5413276902645;-23.2764445601002
ARAL MOREIRA;5001243;CIDADE;-55.6307614468625;-22.9478813284076
BELA VISTA;5002100;CIDADE;-56.5313145677842;-22.1159761777779
ANTÔNIO JOÃO;5000906;CIDADE;-55.9480815053866;-22.1946853898682
PONTA PORÃ;5006606;CIDADE;-55.7108501778637;-22.4861870780929
BONITO;5002209;CIDADE;-56.4928586185731;-21.1243412838146
BODOQUENA;5002159;CIDADE;-56.6735673000081;-20.5548426975257
JARDIM;5005004;CIDADE;-56.1458445844119;-21.479603145113
GUIA LOPES DA LAGUNA;5004106;CIDADE;-56.1081525022452;-21.4524591416024
NIOAQUE;5005806;CIDADE;-55.83388992141349;-21.1581523128633
ANASTÁCIO;5000708;CIDADE;-55.8045705990792;-20.4823601989565
AQUIDAUANA;5001102;CIDADE;-55.7906160902267;-20.4746543462973
MIRANDA;5005608;CIDADE;-56.3901982861341;-20.2393334984304
PARANHOS;5006358;CIDADE;-55.4330304573901;-23.8968696607807
SETE QUEDAS;5007703;CIDADE;-55.0533150890634;-23.9835132542699
TACURU;5007950;CIDADE;-55.0203205182963;-23.6347420213221
AMAMBAI;5000609;CIDADE;-55.2438276926237;-23.1005822376948
JAPORÃ;5004809;CIDADE;-54.4034847428654;-23.89406695076231
MUNDO NOVO;5005681;CIDADE;-54.2816614237766;-23.9352736174856
ELDORADO;5003751;CIDADE;-54.2800282489385;-23.7740539193786
IGUATEMI;5004304;CIDADE;-54.5586010866498;-23.6619015638135
JUTI;5005152;CIDADE;-54.60132283125709;-22.8624718337163
LAGUNA CARAPÃ;5005251;CIDADE;-55.1501077344737;-22.5505815138437
MARACAJU;5005400;CIDADE;-55.1571395689956;-21.6236103831694
CAARAPÓ;5002407;CIDADE;-54.8269701013583;-22.6365822187274
DOURADOS;5003702;CIDADE;-54.8112891228926;-22.2272355362375
JATEÍ;5005103;CIDADE;-54.3080543756429;-22.4816870298604
FÁTIMA DO SUL;5003801;CIDADE;-54.5163759902411;-22.3754232103941
VICENTINA;5008404;CIDADE;-54.44212477684211;-22.4017875566794
ITAPORÃ;5004502;CIDADE;-54.7956587372653;-22.0824475595066
DOURADINA;5003504;CIDADE;-54.6079306686314;-22.0455302813855
RIO BRILHANTE;5007208;CIDADE;-54.54224222246891;-21.8011952569219
ITAQUIRAÍ;5004601;CIDADE;-54.18819830274341;-23.490663261656
ALTÔNIA;4100509;CIDADE;-53.8919738559114;-23.8708814050519
SÃO JORGE DO PATROCÍNIO;4125357;CIDADE;-53.8833305620973;-23.7582479645602
ESPERANÇA NOVA;4107520;CIDADE;-53.8104950389931;-23.7246547641817
PÉROLA;4118907;CIDADE;-53.6732521304902;-23.7974787679922
ALTO PARAÍSO;4128625;CIDADE;-53.73289315076921;-23.508130737238
ICARAÍMA;4109906;CIDADE;-53.62557016229591;-23.396711427317
NAVIRAÍ;5005707;CIDADE;-54.1988361701181;-23.0599994818193
CAFEZAL DO SUL;4103479;CIDADE;-53.5110648541672;-23.90470447054
XAMBRÊ;4128807;CIDADE;-53.4869406945526;-23.738394395443
PEROBAL;4118857;CIDADE;-53.4115002037974;-23.8945617445719
UMUARAMA;4128104;CIDADE;-53.3084598047956;-23.7639499993035
IVATÉ;4111555;CIDADE;-53.3738794057888;-23.4095888732628
CRUZEIRO DO OESTE;4106605;CIDADE;-53.0818216076221;-23.7769048599603
MARIA HELENA;4114708;CIDADE;-53.2048192711896;-23.6176096554274
NOVA OLÍMPIA;4117206;CIDADE;-53.0912329510219;-23.4711009784115
QUERÊNCIA DO NORTE;4121000;CIDADE;-53.4870407060353;-23.086528578665
DOURADINA;4107256;CIDADE;-53.2964486552293;-23.3819072154777
SANTA CRUZ DE MONTE CASTELO;4123303;CIDADE;-53.29730642049571;-22.9585816071235
TAPIRA;4126900;CIDADE;-53.07532530673451;-23.3171088643701
SANTA MÔNICA;4123956;CIDADE;-53.1112728730423;-23.1054239380859
SANTA ISABEL DO IVAÍ;4123709;CIDADE;-53.1959475093714;-23.0010888087247
SÃO PEDRO DO PARANÁ;4125902;CIDADE;-53.22293714046291;-22.82512944855
LOANDA;4113502;CIDADE;-53.1344689597801;-22.9302286211757
GLÓRIA DE DOURADOS;5004007;CIDADE;-54.2346287898579;-22.4144245303329
DEODÁPOLIS;5003454;CIDADE;-54.1611832428627;-22.2729491416043
NOVO HORIZONTE DO SUL;5006259;CIDADE;-53.8608865570425;-22.6549531049098
IVINHEMA;5004700;CIDADE;-53.8269701470603;-22.3016035620454
ANGÉLICA;5000856;CIDADE;-53.76973048046271;-22.156062521774
TAQUARUSSU;5007976;CIDADE;-53.3519187419396;-22.4899870558582
NOVA ANDRADINA;5006200;CIDADE;-53.3515738148688;-22.2487593120915
PORTO RICO;4120200;CIDADE;-53.26796811150509;-22.7783515579737
MARILENA;4115002;CIDADE;-53.0371858842334;-22.7318252444575
NOVA LONDRINA;4117107;CIDADE;-52.98631262987659;-22.7638686041618
ROSANA;3544251;CIDADE;-53.0586544794081;-22.5811754986355
BATAYPORÃ;5002001;CIDADE;-53.2748069911071;-22.2958799659277
DOIS IRMÃOS DO BURITI;5003488;CIDADE;-55.281914486329;-20.692312057615
SIDROLÂNDIA;5007901;CIDADE;-54.9660301365064;-20.9310544589063
NOVA ALVORADA DO SUL;5006002;CIDADE;-54.3828036000825;-21.4666342518715
TERENOS;5008008;CIDADE;-54.8655566306489;-20.4423076794172
CAMPO GRANDE;5002704;CIDADE;-54.6157435664588;-20.4580299872454
ROCHEDO;5007505;CIDADE;-54.8927719306444;-19.9618596059358
RIO NEGRO;5007307;CIDADE;-54.9875023242982;-19.4474291067475
CORGUINHO;5003108;CIDADE;-54.8300060009779;-19.8312180166324
JARAGUARI;5004908;CIDADE;-54.44068395393851;-20.1037403910954
BANDEIRANTES;5001508;CIDADE;-54.36319389428411;-19.9209203024895
SÃO GABRIEL DO OESTE;5007695;CIDADE;-54.5645690937601;-19.3955213695662
RIBAS DO RIO PARDO;5007109;CIDADE;-53.761677624322;-20.4436755249679
CAMAPUÃ;5002605;CIDADE;-54.04330948642801;-19.535259798153
CORUMBÁ;5003207;CIDADE;-57.6489854573401;-19.0063746540642
LADÁRIO;5005202;CIDADE;-57.6024001955275;-19.0017756674418
MIRASSOL D'OESTE;5105622;CIDADE;-58.0979035689912;-15.6740707805967
CURVELÂNDIA;5103437;CIDADE;-57.9171149786644;-15.6093061703671
CÁCERES;5102504;CIDADE;-57.6747623072181;-16.074095629861
LAMBARI D'OESTE;5105234;CIDADE;-58.0058251786064;-15.3155012395628
TANGARÁ DA SERRA;5107958;CIDADE;-57.4912991530603;-14.6237847500065
PORTO ESTRELA;5106851;CIDADE;-57.2013572999111;-15.3313363055225
BARRA DO BUGRES;5101704;CIDADE;-57.1864086868428;-15.0662579398692
NOVA OLÍMPIA;5106232;CIDADE;-57.2829239619584;-14.7794142413993
DENISE;5103452;CIDADE;-57.0537772728323;-14.7338159178671
SANTO AFONSO;5107263;CIDADE;-57.00050363747089;-14.4907768192401
ARENÁPOLIS;5101308;CIDADE;-56.8444892395472;-14.4555216655191
NOVA MARILÂNDIA;5108857;CIDADE;-56.9731767858961;-14.3624512712826
POCONÉ;5106505;CIDADE;-56.62650935273499;-16.2595094664589
NOSSA SENHORA DO LIVRAMENTO;5106109;CIDADE;-56.3452585551782;-15.7896762061736
BARÃO DE MELGAÇO;5101605;CIDADE;-55.9671211336846;-16.1950994471373
SANTO ANTÔNIO DO LEVERGER;5107800;CIDADE;-56.0941622007565;-15.8691790434606
VÁRZEA GRANDE;5108402;CIDADE;-56.1446637401866;-15.6580648235976
CUIABÁ;5103403;CIDADE;-56.0732520381911;-15.5699890126321
JANGADA;5104906;CIDADE;-56.490194562614;-15.2396872251141
ACORIZAL;5100102;CIDADE;-56.3715525667098;-15.197889979856
NORTELÂNDIA;5106000;CIDADE;-56.8020689751516;-14.4537245563087
ROSÁRIO OESTE;5107701;CIDADE;-56.4282932054054;-14.8264275710099
NOBRES;5105903;CIDADE;-56.3340848305989;-14.7245002729059
ALTO PARAGUAI;5100508;CIDADE;-56.49444166257549;-14.5147118098727
DIAMANTINO;5103502;CIDADE;-56.433566081512;-14.4013229617098
CHAPADA DOS GUIMARÃES;5103007;CIDADE;-55.7450045178921;-15.4605696784231
RIO VERDE DE MATO GROSSO;5007406;CIDADE;-54.84225369011249;-18.9165864396768
COXIM;5003306;CIDADE;-54.75805595019331;-18.508410538078
PEDRO GOMES;5006408;CIDADE;-54.5524458291661;-18.1018562336928
SONORA;5007935;CIDADE;-54.7549062179542;-17.5813552339093
FIGUEIRÃO;5003900;CIDADE;-53.6425733238918;-18.6754480701946
ALCINÓPOLIS;5000252;CIDADE;-53.7080896262813;-18.325033978799
COSTA RICA;5003256;CIDADE;-53.1330469048741;-18.543548387841
ITIQUIRA;5104609;CIDADE;-54.1443008960004;-17.2068250548319
ALTO TAQUARI;5100607;CIDADE;-53.2819931222741;-17.8347436501711
ALTO ARAGUAIA;5100300;CIDADE;-53.22026032998431;-17.3155899398596
SANTA RITA DO ARAGUAIA;5219407;CIDADE;-53.2051465107986;-17.3263507857821
ALTO GARÇAS;5100409;CIDADE;-53.5284541196243;-16.946722175513
ARAGUAINHA;5101209;CIDADE;-53.03561988386;-16.8575455373669
JACIARA;5104807;CIDADE;-54.9641881751901;-15.9648381836498
SÃO PEDRO DA CIPA;5107404;CIDADE;-54.9189931830667;-16.0027085200254
DOM AQUINO;5103601;CIDADE;-54.9174807825692;-15.8074551502946
CAMPO VERDE;5102678;CIDADE;-55.1716554148957;-15.5537042698269
RONDONÓPOLIS;5107602;CIDADE;-54.6335870401784;-16.4701628729862
PEDRA PRETA;5106372;CIDADE;-54.4713956382101;-16.6222104153648
SÃO JOSÉ DO POVO;5107297;CIDADE;-54.2562463683381;-16.4663303082739
JUSCIMEIRA;5105200;CIDADE;-54.8887609429504;-16.0446851886071
POXORÉO;5107008;CIDADE;-54.4007326559538;-15.8181355564855
PRIMAVERA DO LESTE;5107040;CIDADE;-54.3000532591227;-15.5522935926261
NOVA BRASILÂNDIA;5106208;CIDADE;-54.9719088691261;-14.9254644555349
PLANALTO DA SERRA;5106455;CIDADE;-54.7834957522787;-14.6607059390278
GUIRATINGA;5104203;CIDADE;-53.7609640294195;-16.3483892675563
TESOURO;5108105;CIDADE;-53.55584396202981;-16.0752374007198
PARANATINGA;5106307;CIDADE;-54.0540919919065;-14.427698479643
SANTO ANTÔNIO DO LESTE;5107792;CIDADE;-53.6117238521722;-14.8008133960851
NOVO SÃO JOAQUIM;5106281;CIDADE;-53.0161155129018;-14.8865652622461
SANTA ROSA DO PURUS;1200435;CIDADE;-70.4864968937616;-9.44340653710605
ASSIS BRASIL;1200054;CIDADE;-69.5634591746677;-10.942865680565
EPITACIOLÂNDIA;1200252;CIDADE;-68.7448680666749;-11.0282398276016
BRASILÉIA;1200104;CIDADE;-68.7479434259584;-11.0164110187314
XAPURI;1200708;CIDADE;-68.5062948050463;-10.6520719399922
MARECHAL THAUMATURGO;1200351;CIDADE;-72.7902659086983;-8.95359112286319
PORTO WALTER;1200393;CIDADE;-72.7423339648033;-8.26666636255869
MÂNCIO LIMA;1200336;CIDADE;-72.9165010261308;-7.59322259361088
RODRIGUES ALVES;1200427;CIDADE;-72.6478549141997;-7.73360203347127
CRUZEIRO DO SUL;1200203;CIDADE;-72.6725313174358;-7.63069000476114
GUAJARÁ;1301654;CIDADE;-72.5824305383396;-7.54777441458756
JORDÃO;1200328;CIDADE;-71.9508751248365;-9.1933578595305
IPIXUNA;1301803;CIDADE;-71.6944180603084;-7.05098011420702
TARAUACÁ;1200609;CIDADE;-70.7555010628937;-8.15566859150029
FEIJÓ;1200302;CIDADE;-70.3539836082165;-8.16024752973452
ENVIRA;1301506;CIDADE;-70.0304125429825;-7.43981754372578
MANOEL URBANO;1200344;CIDADE;-69.2599445775075;-8.83631773660487
SENA MADUREIRA;1200500;CIDADE;-68.655684061692;-9.06533950470602
EIRUNEPÉ;1301407;CIDADE;-69.8662902624416;-6.66735256663392
SENADOR GUIOMARD;1200450;CIDADE;-67.7431723600051;-10.1481735858712
BUJARI;1200138;CIDADE;-67.9518592792015;-9.82001962639185
RIO BRANCO;1200401;CIDADE;-67.8105287004235;-9.97829875240255
CAPIXABA;1200179;CIDADE;-67.6735079719432;-10.5697677084521
PLÁCIDO DE CASTRO;1200385;CIDADE;-67.1882600861516;-10.3351332824092
PORTO ACRE;1200807;CIDADE;-67.5405900835194;-9.60085823087717
ACRELÂNDIA;1200013;CIDADE;-67.0523165800206;-10.0737938921381
COSTA MARQUES;1100080;CIDADE;-64.2316539391172;-12.4360138773168
SÃO FRANCISCO DO GUAPORÉ;1101492;CIDADE;-63.57086471076491;-12.0637984118473
GUAJARÁ-MIRIM;1100106;CIDADE;-65.3239518196923;-10.7738837403235
NOVA MAMORÉ;1100338;CIDADE;-65.3291490231467;-10.4117712943643
CAMPO NOVO DE RONDÔNIA;1100700;CIDADE;-63.6249914265426;-10.5684164690079
BURITIS;1100452;CIDADE;-63.82967879175651;-10.209805406906
MONTE NEGRO;1101401;CIDADE;-63.2955591672175;-10.2630977555518
ALTO PARAÍSO;1100403;CIDADE;-63.3176294334976;-9.71666673776296
BOCA DO ACRE;1300706;CIDADE;-67.3995777566805;-8.75124319580966
PAUINI;1303502;CIDADE;-67.0020974885282;-7.71404364407086
ITAMARATI;1301951;CIDADE;-68.2479174359782;-6.43779934840865
CARAUARI;1301001;CIDADE;-66.8966352816837;-4.88166590404391
LÁBREA;1302405;CIDADE;-64.79477302752;-7.26194655309012
CANDEIAS DO JAMARI;1100809;CIDADE;-63.70002007182979;-8.78502070319229
PORTO VELHO;1100205;CIDADE;-63.8314456543611;-8.76889178971532
CANUTAMA;1300904;CIDADE;-64.3942308189288;-6.52910607561267
FERNANDO DE NORONHA;2605459;CIDADE;-32.435186328053;-3.85202140065516
ATALAIA DO NORTE;1300201;CIDADE;-70.1879892845226;-4.3661574895726
BENJAMIN CONSTANT;1300607;CIDADE;-70.0273484332765;-4.37498901846019
TABATINGA;1304062;CIDADE;-69.9462443752272;-4.23188367550759
SÃO PAULO DE OLIVENÇA;1303908;CIDADE;-68.9448534881358;-3.46650962337728
AMATURÁ;1300060;CIDADE;-68.2096146409404;-3.36680518739482
SANTO ANTÔNIO DO IÇÁ;1303700;CIDADE;-67.9464851438841;-3.10748630907923
TONANTINS;1304237;CIDADE;-67.7764822806952;-2.86109124974123
JURUÁ;1302207;CIDADE;-66.0630419255434;-3.47488959877636
JUTAÍ;1302306;CIDADE;-66.7713275466878;-2.74464644676747
FONTE BOA;1301605;CIDADE;-66.0965029898347;-2.51227068446504
SÃO GABRIEL DA CACHOEIRA;1303809;CIDADE;-67.0836428963463;-0.136462788112021
JAPURÁ;1302108;CIDADE;-66.9969034946413;-1.88084485864101
TEFÉ;1304203;CIDADE;-64.7084196633027;-3.34837249383133
UARINI;1304260;CIDADE;-65.1553456401554;-2.98360924259388
ALVARÃES;1300029;CIDADE;-64.8135346775686;-3.21658376896053
MARAÃ;1302801;CIDADE;-65.5742837031641;-1.86643687723974
SANTA ISABEL DO RIO NEGRO;1303601;CIDADE;-65.020022639512;-0.416694831868121
ALTA FLORESTA D'OESTE;1100015;CIDADE;-61.99982389629361;-11.9355403043823
PIMENTEIRAS DO OESTE;1101468;CIDADE;-61.04437900253839;-13.4765620020333
CEREJEIRAS;1100056;CIDADE;-60.8184261646815;-13.19503303162
ALTO ALEGRE DOS PARECIS;1100379;CIDADE;-61.853077168603;-12.1317772241827
SANTA LUZIA D'OESTE;1100296;CIDADE;-61.7733054630545;-11.9084233320875
PARECIS;1101450;CIDADE;-61.5979979726776;-12.1798270503181
SÃO FELIPE D'OESTE;1101484;CIDADE;-61.5125081133327;-11.9143893543069
PRIMAVERA DE RONDÔNIA;1101476;CIDADE;-61.3165462429165;-11.8257069538678
CORUMBIARA;1100072;CIDADE;-60.9487011706614;-12.9975202360694
CHUPINGUAIA;1100924;CIDADE;-60.9018477499554;-12.5568407606929
SERINGUEIRAS;1101500;CIDADE;-63.03876099770721;-11.7671166352298
SÃO MIGUEL DO GUAPORÉ;1100320;CIDADE;-62.7200634814364;-11.6994897434308
MIRANTE DA SERRA;1101302;CIDADE;-62.66942709525659;-11.0456092895817
GOVERNADOR JORGE TEIXEIRA;1101005;CIDADE;-62.74045763946321;-10.6120717722655
NOVA BRASILÂNDIA D'OESTE;1100148;CIDADE;-62.30823016301899;-11.72132541348
ALVORADA D'OESTE;1100346;CIDADE;-62.2772748656972;-11.344130023069
NOVO HORIZONTE DO OESTE;1100502;CIDADE;-61.9943876627606;-11.7097429196397
CASTANHEIRAS;1100908;CIDADE;-61.9491611964662;-11.4268422250956
NOVA UNIÃO;1101435;CIDADE;-62.55508939888;-10.9155320413115
URUPÁ;1101708;CIDADE;-62.3706324537667;-11.1285452753216
TEIXEIRÓPOLIS;1101559;CIDADE;-62.25592225395459;-10.9321692856881
OURO PRETO DO OESTE;1100155;CIDADE;-62.2610551904363;-10.7235739004681
CACAULÂNDIA;1100601;CIDADE;-62.9031899345687;-10.3388728390592
ARIQUEMES;1100023;CIDADE;-63.0332692780484;-9.90846286624693
RIO CRESPO;1100262;CIDADE;-62.9000103659589;-9.70553670942552
JARU;1100114;CIDADE;-62.4762307081317;-10.4359487675478
THEOBROMA;1101609;CIDADE;-62.3451455299349;-10.2487305516953
VALE DO PARAÍSO;1101807;CIDADE;-62.1343903568099;-10.43105268422
VALE DO ANARI;1101757;CIDADE;-62.1768234421278;-9.85139270774329
MACHADINHO D'OESTE;1100130;CIDADE;-61.9995925724466;-9.42556247969476
ROLIM DE MOURA;1100288;CIDADE;-61.7857809351854;-11.7222589130049
CACOAL;1100049;CIDADE;-61.4429442118224;-11.433865028318
PRESIDENTE MÉDICI;1100254;CIDADE;-61.90943868352979;-11.1732050158676
JI-PARANÁ;1100122;CIDADE;-61.94509458268411;-10.8820513179987
MINISTRO ANDREAZZA;1101203;CIDADE;-61.5189219301054;-11.1962379837992
RONDOLÂNDIA;5107578;CIDADE;-61.4596781719947;-10.8443019736611
PIMENTA BUENO;1100189;CIDADE;-61.183665673642;-11.6775369896255
ESPIGÃO D'OESTE;1100098;CIDADE;-61.0201731132847;-11.5285546329773
CABIXI;1100031;CIDADE;-60.5443135812009;-13.4997634592674
COLORADO DO OESTE;1100064;CIDADE;-60.5550674630789;-13.1305638410373
COMODORO;5103304;CIDADE;-59.7904309944221;-13.6605599165493
VILHENA;1100304;CIDADE;-60.1385838660987;-12.7413734713965
CAMPOS DE JÚLIO;5102686;CIDADE;-59.2634085205862;-13.7199230452052
SAPEZAL;5107875;CIDADE;-58.8121380141755;-13.5381953530411
ARIPUANÃ;5101407;CIDADE;-59.4486163791619;-10.1725236951542
JUÍNA;5105150;CIDADE;-58.7622171517696;-11.4220180319014
CASTANHEIRA;5102850;CIDADE;-58.6134092636961;-11.1341078572341
COLNIZA;5103254;CIDADE;-59.2189486740791;-9.45790384640582
JURUENA;5105176;CIDADE;-58.4963091740334;-10.3291127795335
COTRIGUAÇU;5103379;CIDADE;-58.6068949710817;-9.88625387121004
ITAPUÃ DO OESTE;1101104;CIDADE;-63.18233701651829;-9.19187167502991
CUJUBIM;1100940;CIDADE;-62.587174531921;-9.37819339875335
HUMAITÁ;1301704;CIDADE;-63.0266980219283;-7.51222495036648
TAPAUÁ;1304104;CIDADE;-63.18709486718021;-5.62422351760364
MANICORÉ;1302702;CIDADE;-61.2992484088508;-5.81320526099773
APUÍ;1300144;CIDADE;-59.88566610471881;-7.19787015137271
NOVO ARIPUANÃ;1303304;CIDADE;-60.3770456690009;-5.12266931402812
CAMPO NOVO DO PARECIS;5102637;CIDADE;-57.8885464788372;-13.6547331727689
BRASNORTE;5101902;CIDADE;-58.00267362778721;-12.1249381394923
NOVA MARINGÁ;5108907;CIDADE;-57.0985516651799;-13.0114269537202
SÃO JOSÉ DO RIO CLARO;5107305;CIDADE;-56.7215837606849;-13.4520683369831
NOVA MUTUM;5106224;CIDADE;-56.1100052480978;-13.8327256922854
LUCAS DO RIO VERDE;5105259;CIDADE;-55.92177070911169;-13.0704649504837
TAPURAH;5108006;CIDADE;-56.5194858964735;-12.7320686309095
ITANHANGÁ;5104542;CIDADE;-56.6493436130839;-12.2347687154753
SORRISO;5107925;CIDADE;-55.72591367509131;-12.5517767074447
IPIRANGA DO NORTE;5104526;CIDADE;-56.1597931355503;-12.2368419997845
JUARA;5105101;CIDADE;-57.5131232183312;-11.2503599781237
PORTO DOS GAÚCHOS;5106802;CIDADE;-57.4083538380051;-11.5338400290875
NOVO HORIZONTE DO NORTE;5106273;CIDADE;-57.3174751138237;-11.3876347789954
TABAPORÃ;5107941;CIDADE;-56.8248337962705;-11.307507956675
NOVA BANDEIRANTES;5106158;CIDADE;-57.8184757985331;-9.84295281998759
NOVA MONTE VERDE;5108956;CIDADE;-57.4723693069132;-9.97261692661274
APIACÁS;5100805;CIDADE;-57.3954022412255;-9.56549516841497
NOVA CANAÃ DO NORTE;5106216;CIDADE;-55.71487730604381;-10.6311042286766
PARANAÍTA;5106299;CIDADE;-56.4788997201888;-9.66965549821321
ALTA FLORESTA;5100250;CIDADE;-56.09161044047379;-9.87172259630039
CARLINDA;5102793;CIDADE;-55.8216147779941;-9.96666579223378
SANTA RITA DO TRIVELATO;5107768;CIDADE;-55.2776928814179;-13.8161897315183
NOVA UBIRATÃ;5106240;CIDADE;-55.273213318984;-13.0338277155405
VERA;5108501;CIDADE;-55.30091857486;-12.2840488627839
SINOP;5107909;CIDADE;-55.5009220023868;-11.8580053076977
SANTA CARMEM;5107248;CIDADE;-55.2822227065053;-11.96968555654
FELIZ NATAL;5103700;CIDADE;-54.9339040664255;-12.3832470277783
GAÚCHA DO NORTE;5103858;CIDADE;-53.26151867194759;-13.1880431890901
ITAÚBA;5104559;CIDADE;-55.2466893348601;-11.0077118983777
COLÍDER;5103205;CIDADE;-55.4642305419601;-10.8040897786613
NOVA SANTA HELENA;5106190;CIDADE;-55.1836857411212;-10.8509999755618
CLÁUDIA;5103056;CIDADE;-54.8741824477688;-11.5053107372794
UNIÃO DO SUL;5108303;CIDADE;-54.3748444105852;-11.5355107503535
MARCELÂNDIA;5105580;CIDADE;-54.51930623219051;-11.0805914109253
NOVA GUARITA;5108808;CIDADE;-55.4030701389659;-10.3088464290438
TERRA NOVA DO NORTE;5108055;CIDADE;-55.1159514886165;-10.597128092808
PEIXOTO DE AZEVEDO;5106422;CIDADE;-54.9922974013688;-10.2448420824407
MATUPÁ;5105606;CIDADE;-54.9318057201458;-10.1721074658748
NOVO MUNDO;5106265;CIDADE;-55.1720189315524;-9.97710919417073
GUARANTÃ DO NORTE;5104104;CIDADE;-54.91605731127221;-9.95407323332093
JACAREACANGA;1503754;CIDADE;-57.7663398583794;-6.22355173118281
TRAIRÃO;1508050;CIDADE;-55.9961700349273;-4.69981914954297
NOVO PROGRESSO;1505031;CIDADE;-55.4198701179784;-7.03483591305845
COARI;1301209;CIDADE;-63.14218398405621;-4.08421915864164
CODAJÁS;1301308;CIDADE;-62.0634296604883;-3.84304593261256
ANORI;1300102;CIDADE;-61.6589553828779;-3.74538558599572
BERURI;1300631;CIDADE;-61.3715708916659;-3.89451340969001
ANAMÃ;1300086;CIDADE;-61.4059034797501;-3.57637042677263
CAAPIRANGA;1300839;CIDADE;-61.2113341331817;-3.33009339183202
NOVO AIRÃO;1303205;CIDADE;-60.948810707829;-2.62343245894122
BARCELOS;1300409;CIDADE;-62.92566965810259;-0.972801052500113
CAREIRO;1301100;CIDADE;-60.3638098437089;-3.8224472699203
MANAQUIRI;1302553;CIDADE;-60.4588813063745;-3.4290796692398
BORBA;1300805;CIDADE;-59.5945590194969;-4.39061989132849
MANACAPURU;1302504;CIDADE;-60.62058944587059;-3.29827803535901
IRANDUBA;1301852;CIDADE;-60.1933881661307;-3.28105387749892
MANAUS;1302603;CIDADE;-60.023335181061;-3.13469149109877
CAREIRO DA VÁRZEA;1301159;CIDADE;-59.82631406083391;-3.19739659476436
RIO PRETO DA EVA;1303569;CIDADE;-59.70473809419901;-2.6933015415564
NOVA OLINDA DO NORTE;1303106;CIDADE;-59.0930740260433;-3.88759283178356
AUTAZES;1300300;CIDADE;-59.1335670918168;-3.57866364165355
ITACOATIARA;1301902;CIDADE;-58.4401754367572;-3.14037880381298
URUCURITUBA;1304401;CIDADE;-58.1596410413098;-3.13463311554413
SILVES;1304005;CIDADE;-58.21480086082691;-2.83642742957244
PRESIDENTE FIGUEIREDO;1303536;CIDADE;-60.0256468344675;-2.05842908516517
CARACARAÍ;1400209;CIDADE;-61.14917687013;1.80387124723814
IRACEMA;1400282;CIDADE;-61.0522585850197;2.16821476513243
MUCAJAÍ;1400308;CIDADE;-60.9115185306216;2.47977223497174
ALTO ALEGRE;1400050;CIDADE;-61.3140223901178;2.99382294755628
AMAJARI;1400027;CIDADE;-61.4205901726631;3.65211844532578
BOA VISTA;1400100;CIDADE;-60.67053267296511;2.81668191901165
PACARAIMA;1400456;CIDADE;-61.1473063471493;4.47525934006528
RORAINÓPOLIS;1400472;CIDADE;-60.42506049398191;0.937195393566653
SÃO LUIZ;1400605;CIDADE;-60.0282667741903;1.01811162735769
SÃO JOÃO DA BALIZA;1400506;CIDADE;-59.9060443451544;0.94715742743545
CAROEBE;1400233;CIDADE;-59.6948100736757;0.872674507157786
CANTÁ;1400175;CIDADE;-60.6020628476112;2.60766639833063
BONFIM;1400159;CIDADE;-59.8780066289099;3.35028861900008
NORMANDIA;1400407;CIDADE;-59.6352062835683;3.88297828517415
UIRAMUTÃ;1400704;CIDADE;-60.195716148042;4.58544038739198
MAUÉS;1302900;CIDADE;-57.7150343867525;-3.38642792609963
ITAPIRANGA;1302009;CIDADE;-58.0345458839662;-2.74184275223855
BOA VISTA DO RAMOS;1300680;CIDADE;-57.5877073464737;-2.97172653149152
SÃO SEBASTIÃO DO UATUMÃ;1303957;CIDADE;-57.87034635583459;-2.5701525795932
URUCARÁ;1304302;CIDADE;-57.7598281745956;-2.53661167175683
BARREIRINHA;1300508;CIDADE;-57.0677504898938;-2.79814983683766
ITAITUBA;1503606;CIDADE;-55.9900488572777;-4.2637294798599
PARINTINS;1303403;CIDADE;-56.7362921451951;-2.62705258575071
FARO;1503002;CIDADE;-56.745753017307;-2.17297524187817
NHAMUNDÁ;1303007;CIDADE;-56.7167699133376;-2.18898376682478
TERRA SANTA;1507979;CIDADE;-56.4909047722432;-2.10811447366957
JURUTI;1503903;CIDADE;-56.0949976884001;-2.15525299492899
ORIXIMINÁ;1505304;CIDADE;-55.8627995152359;-1.76375349994187
RURÓPOLIS;1506195;CIDADE;-54.90586225986911;-4.09906538986528
AVEIRO;1501006;CIDADE;-55.3307343898178;-3.60559525916533
BELTERRA;1501451;CIDADE;-54.94267473932619;-2.64902016938132
SANTARÉM;1506807;CIDADE;-54.7185701672711;-2.43621332991971
PLACAS;1505650;CIDADE;-54.2169681312654;-3.867315562008201
URUARÁ;1508159;CIDADE;-53.7370310504594;-3.706528499878099
ÓBIDOS;1505106;CIDADE;-55.5163235097126;-1.90923549581828
CURUÁ;1502855;CIDADE;-55.1196786087308;-1.8899287042432
ALENQUER;1500404;CIDADE;-54.74086235018961;-1.95139750493569
MONTE ALEGRE;1504802;CIDADE;-54.073374725636;-2.00332799993398
PRAINHA;1506005;CIDADE;-53.4818139407895;-1.80569449994049
PEDRO OSÓRIO;4314209;CIDADE;-52.8263117339326;-31.8638282209654
CERRITO;4305124;CIDADE;-52.8148023322809;-31.8526391259378
MORRO REDONDO;4312450;CIDADE;-52.6577802013944;-31.5822032266039
CANGUÇU;4304507;CIDADE;-52.6762858320724;-31.3938595234769
CAPÃO DO LEÃO;4304663;CIDADE;-52.48700757206271;-31.7668386558036
PELOTAS;4314407;CIDADE;-52.3443200629915;-31.7195978799848
ARROIO DO PADRE;4301073;CIDADE;-52.43330150440961;-31.4406439922291
RIO GRANDE;4315602;CIDADE;-52.0867696991135;-32.0504457918034
SÃO JOSÉ DO NORTE;4318507;CIDADE;-52.0342022719838;-32.0206091118894
TURUÇU;4322327;CIDADE;-52.1714156210008;-31.4123658562518
SÃO LOURENÇO DO SUL;4318804;CIDADE;-51.9769152357623;-31.3640237203121
ENCRUZILHADA DO SUL;4306908;CIDADE;-52.52204538985581;-30.5436573239429
PANTANO GRANDE;4313953;CIDADE;-52.373900235302;-30.1945515263542
CRISTAL;4306056;CIDADE;-52.0494104017764;-30.9993451909885
AMARAL FERRADOR;4300638;CIDADE;-52.25127039696981;-30.8751476003378
DOM FELICIANO;4306502;CIDADE;-52.10393357967799;-30.7085984254861
CHUVISCA;4305447;CIDADE;-51.9785422226284;-30.7574267103612
CAMAQUÃ;4303509;CIDADE;-51.8146009062211;-30.8507043884247
MINAS DO LEÃO;4312252;CIDADE;-52.0512801985772;-30.1224395099051
CERRO GRANDE DO SUL;4305173;CIDADE;-51.75310326521871;-30.6020289281233
BARÃO DO TRIUNFO;4301750;CIDADE;-51.7376694748388;-30.3904838539107
BUTIÁ;4302709;CIDADE;-51.9614829532158;-30.1161440118278
ARROIO DOS RATOS;4301107;CIDADE;-51.733806866458;-30.0900131138575
CACHOEIRA DO SUL;4303004;CIDADE;-52.893412558482;-30.0458199789091
NOVO CABRAIS;4313391;CIDADE;-52.9550860641314;-29.73625460492
CERRO BRANCO;4305132;CIDADE;-52.9419778017439;-29.6562871941098
CANDELÁRIA;4304200;CIDADE;-52.78966843881919;-29.6712854151526
VALE DO SOL;4322533;CIDADE;-52.6813545006574;-29.6088279857379
RIO PARDO;4315701;CIDADE;-52.3790182512363;-29.9856258778359
VERA CRUZ;4322707;CIDADE;-52.5011034071041;-29.7198575932216
SINIMBU;4320677;CIDADE;-52.5216363086253;-29.5290681562089
SANTA CRUZ DO SUL;4316808;CIDADE;-52.4299285873704;-29.7197684329337
PASSA SETE;4314068;CIDADE;-52.96398323521279;-29.4516655680905
HERVEIRAS;4309571;CIDADE;-52.6501705958055;-29.4570438100949
LAGOÃO;4311254;CIDADE;-52.7750289082597;-29.2243164003445
TUNAS;4322152;CIDADE;-52.9570131055336;-29.1064397180437
GRAMADO XAVIER;4309159;CIDADE;-52.57783775696651;-29.2699362167303
BOQUEIRÃO DO LEÃO;4302451;CIDADE;-52.42805026447179;-29.3051579171027
BARROS CASSAL;4302006;CIDADE;-52.58775212450001;-29.0877043599364
FONTOURA XAVIER;4308300;CIDADE;-52.3449531837753;-28.9821677883751
VALE VERDE;4322525;CIDADE;-52.1797223009284;-29.782574938827
PASSO DO SOBRADO;4314076;CIDADE;-52.27875819432271;-29.7457935491636
VENÂNCIO AIRES;4322608;CIDADE;-52.1918802404895;-29.6116528918445
MATO LEITÃO;4312153;CIDADE;-52.1330293263325;-29.5248303369881
TAQUARI;4321303;CIDADE;-51.8627764842002;-29.8028008508592
SÃO JERÔNIMO;4318408;CIDADE;-51.7281775032404;-29.9594386639881
TRIUNFO;4322004;CIDADE;-51.7153128356961;-29.945204265228
GENERAL CÂMARA;4308805;CIDADE;-51.7634306851003;-29.902983740548
BOM RETIRO DO SUL;4302402;CIDADE;-51.94384676595859;-29.6074226190463
CRUZEIRO DO SUL;4306205;CIDADE;-51.9915758851734;-29.5082909678919
ESTRELA;4307807;CIDADE;-51.9702602941755;-29.5034718760129
TABAÍ;4320859;CIDADE;-51.7274751185081;-29.6877706233525
FAZENDA VILANOVA;4308078;CIDADE;-51.8211830446408;-29.5885745288629
TEUTÔNIA;4321451;CIDADE;-51.81281687059929;-29.4889144355854
PAVERAMA;4314159;CIDADE;-51.7302929671505;-29.5548561391262
SÉRIO;4320453;CIDADE;-52.267455830945;-29.3867600890701
PROGRESSO;4315156;CIDADE;-52.3017166029489;-29.2403086773163
CANUDOS DO VALE;4304614;CIDADE;-52.2323826172485;-29.3235252954934
FORQUETINHA;4308433;CIDADE;-52.0969170585272;-29.3806337839215
MARQUES DE SOUZA;4312054;CIDADE;-52.0978044284152;-29.3291373432473
SANTA CLARA DO SUL;4316758;CIDADE;-52.0809258239316;-29.4635962101101
COQUEIRO BAIXO;4305835;CIDADE;-52.09460255964031;-29.1792568004532
TRAVESSEIRO;4321626;CIDADE;-52.05777726813001;-29.2990858089496
NOVA BRÉSCIA;4313003;CIDADE;-52.0179835406117;-29.2165114317433
SÃO JOSÉ DO HERVAL;4318465;CIDADE;-52.2930164741218;-29.0414470205386
POUSO NOVO;4315131;CIDADE;-52.2108697395067;-29.16976125152
ARVOREZINHA;4301404;CIDADE;-52.1795119395293;-28.8730493908414
RELVADO;4315453;CIDADE;-52.07294855429661;-29.1122786653231
PUTINGA;4315206;CIDADE;-52.1599106947089;-28.9987556533305
ILÓPOLIS;4310306;CIDADE;-52.1221574946372;-28.9291527310003
ANTA GORDA;4300703;CIDADE;-52.01582343940731;-28.9708843623014
LAJEADO;4311403;CIDADE;-51.9678277005001;-29.4654544016624
ARROIO DO MEIO;4301008;CIDADE;-51.9474494916139;-29.3988907183293
COLINAS;4305587;CIDADE;-51.8685755464998;-29.3925368708014
CAPITÃO;4304697;CIDADE;-51.9859688456389;-29.2694996077765
ROCA SALES;4315800;CIDADE;-51.86389175992201;-29.2850700729078
ENCANTADO;4306809;CIDADE;-51.87302313436479;-29.2399172064179
WESTFALIA;4323770;CIDADE;-51.7661555137498;-29.4234495490931
IMIGRANTE;4310363;CIDADE;-51.7701905100744;-29.3521581189761
CORONEL PILAR;4305934;CIDADE;-51.6849345965552;-29.2727100746122
DOUTOR RICARDO;4306759;CIDADE;-51.9849043921162;-29.099031060158
MUÇUM;4312609;CIDADE;-51.8660555260518;-29.1656148137761
VESPASIANO CORREA;4322855;CIDADE;-51.8594699501021;-29.0698943549892
SÃO VALENTIM DO SUL;4319711;CIDADE;-51.769670539141;-29.0512275273242
SANTA TEREZA;4317251;CIDADE;-51.7343442423989;-29.1716344390689
DOIS LAJEADOS;4306452;CIDADE;-51.8351029868648;-28.9752053854423
COTIPORÃ;4305959;CIDADE;-51.6964336774026;-28.9985764267976
FAGUNDES VARELA;4307864;CIDADE;-51.69144874773301;-28.8821343118196
ARAMBARÉ;4300851;CIDADE;-51.5013182505968;-30.9093455491798
TAVARES;4321352;CIDADE;-51.08884298151619;-31.2887026574787
SENTINELA DO SUL;4320354;CIDADE;-51.5779817748104;-30.613302596218
SERTÃO SANTANA;4320552;CIDADE;-51.6042499160429;-30.4654278895075
TAPES;4321105;CIDADE;-51.3944987057587;-30.6731729030187
MARIANA PIMENTEL;4311981;CIDADE;-51.58734299144331;-30.35362220151511
BARRA DO RIBEIRO;4301909;CIDADE;-51.3008736006115;-30.2926754990645
GUAÍBA;4309308;CIDADE;-51.3146836637248;-30.1086019215542
MOSTARDAS;4312500;CIDADE;-50.91915885107171;-31.1082251065723
PALMARES DO SUL;4313656;CIDADE;-50.5060519722618;-30.2600666443101
CAPIVARI DO SUL;4304671;CIDADE;-50.5088079340934;-30.1496596621182
CHARQUEADAS;4305355;CIDADE;-51.6250060521847;-29.9568003622277
BROCHIER;4302659;CIDADE;-51.5889159716534;-29.5555279547471
MARATÁ;4311791;CIDADE;-51.5555668832642;-29.5553229667878
MONTENEGRO;4312401;CIDADE;-51.4612993756819;-29.6881186090514
PARECI NOVO;4314035;CIDADE;-51.3988696583788;-29.6393892905972
SÃO JOSÉ DO SUL;4318614;CIDADE;-51.4863838306853;-29.5434695170059
SÃO SEBASTIÃO DO CAÍ;4319505;CIDADE;-51.3766648242451;-29.5920803299471
HARMONIA;4309555;CIDADE;-51.414039704658;-29.5490490859773
TUPANDI;4322251;CIDADE;-51.4198254297357;-29.4879128140596
ELDORADO DO SUL;4306767;CIDADE;-51.310418926013;-29.9992925937693
PORTO ALEGRE;4314902;CIDADE;-51.22866046370231;-30.0300367739484
NOVA SANTA RITA;4313375;CIDADE;-51.2752106890133;-29.8486155348096
CACHOEIRINHA;4303103;CIDADE;-51.0936769542628;-29.950629443528
ALVORADA;4300604;CIDADE;-51.07772945420011;-29.9974930639248
CANOAS;4304606;CIDADE;-51.1810297806876;-29.9186967056744
ESTEIO;4307708;CIDADE;-51.143837339432;-29.8521862946429
SAPUCAIA DO SUL;4320008;CIDADE;-51.15187471552059;-29.8248680317708
CAPELA DE SANTANA;4304689;CIDADE;-51.3217693454114;-29.7019448511705
PORTÃO;4314803;CIDADE;-51.2301496442457;-29.6962586003271
BOM PRINCÍPIO;4302352;CIDADE;-51.35551909739599;-29.4944851141365
LINDOLFO COLLOR;4311627;CIDADE;-51.2081553215577;-29.6008035849824
SÃO JOSÉ DO HORTÊNCIO;4318481;CIDADE;-51.2495975571438;-29.5400486065091
SÃO LEOPOLDO;4318705;CIDADE;-51.1462345615722;-29.7658665415714
ESTÂNCIA VELHA;4307609;CIDADE;-51.1742939249861;-29.6501479667896
NOVO HAMBURGO;4313409;CIDADE;-51.12860527763189;-29.6863260243649
CAMPO BOM;4303905;CIDADE;-51.0588699242785;-29.6756850963106
IVOTI;4310801;CIDADE;-51.15957419432989;-29.5941565220517
PRESIDENTE LUCENA;4315149;CIDADE;-51.1815996950517;-29.5261270673705
DOIS IRMÃOS;4306403;CIDADE;-51.08761931302091;-29.5841587780941
MORRO REUTER;4312476;CIDADE;-51.08008834780719;-29.5393416577783
POÇO DAS ANTAS;4314753;CIDADE;-51.670890273323;-29.454546477022
BOA VISTA DO SUL;4302253;CIDADE;-51.6772718371373;-29.3501193706858
GARIBALDI;4308607;CIDADE;-51.5295484587997;-29.2545491120195
SALVADOR DO SUL;4316501;CIDADE;-51.50942145947649;-29.4397322200719
SÃO PEDRO DA SERRA;4319356;CIDADE;-51.514326527241;-29.4214298411956
BARÃO;4301651;CIDADE;-51.4975376808973;-29.3808640670011
SÃO VENDELINO;4319752;CIDADE;-51.36865275626249;-29.375809956365
CARLOS BARBOSA;4304804;CIDADE;-51.50381762998361;-29.2982968050683
MONTE BELO DO SUL;4312385;CIDADE;-51.6315592453903;-29.1599412223261
VERANÓPOLIS;4322806;CIDADE;-51.5522869044647;-28.9339573354751
BENTO GONÇALVES;4302105;CIDADE;-51.51556030632391;-29.1674019323878
NOVA ROMA DO SUL;4313359;CIDADE;-51.4051574749651;-28.9847489112481
FELIZ;4308102;CIDADE;-51.31010213535569;-29.4539709253436
ALTO FELIZ;4300570;CIDADE;-51.3158156678408;-29.3901391660374
VALE REAL;4322541;CIDADE;-51.251196564827;-29.3922806166134
FARROUPILHA;4307906;CIDADE;-51.3483495737698;-29.2236791860307
LINHA NOVA;4311643;CIDADE;-51.2019020947684;-29.4626386017421
PICADA CAFÉ;4314423;CIDADE;-51.06404982026201;-29.4543844422435
NOVA PETRÓPOLIS;4313201;CIDADE;-51.1069539239561;-29.376208868628
NOVA PÁDUA;4313086;CIDADE;-51.306824642212;-29.0300464444844
CAXIAS DO SUL;4305108;CIDADE;-51.178860205883;-29.1668990102587
FLORES DA CUNHA;4308201;CIDADE;-51.1822205769359;-29.0311421428892
SÃO MARCOS;4319000;CIDADE;-51.0667069382632;-28.9698486386212
VIAMÃO;4323002;CIDADE;-51.024820489573;-30.0818968401211
GRAVATAÍ;4309209;CIDADE;-50.9907929747741;-29.9455189125196
GLORINHA;4309050;CIDADE;-50.7862074318938;-29.8771339604648
SAPIRANGA;4319901;CIDADE;-51.0036229878238;-29.638554116803
SANTA MARIA DO HERVAL;4316956;CIDADE;-50.9872554093643;-29.5035155379907
ARARICÁ;4300877;CIDADE;-50.9256766146808;-29.6172435921189
NOVA HARTZ;4313060;CIDADE;-50.9037934307384;-29.5857475321598
PAROBÉ;4314050;CIDADE;-50.8348659023274;-29.6317492768207
TAQUARA;4321204;CIDADE;-50.7811686192558;-29.6505131034641
IGREJINHA;4310108;CIDADE;-50.7987107333217;-29.5722204549449
TRÊS COROAS;4321709;CIDADE;-50.7831258357971;-29.51666097818
SANTO ANTÔNIO DA PATRULHA;4317608;CIDADE;-50.5209859366778;-29.8320340161103
ROLANTE;4316006;CIDADE;-50.57344233458819;-29.640762889185
CARAÁ;4304713;CIDADE;-50.43575642956959;-29.7786374554265
RIOZINHO;4315750;CIDADE;-50.4738181137863;-29.6422860129801
GRAMADO;4309100;CIDADE;-50.8719457002814;-29.3797375175506
CANELA;4304408;CIDADE;-50.8148673493636;-29.3579718496084
SÃO FRANCISCO DE PAULA;4318200;CIDADE;-50.58210810783039;-29.4440980739912
BALNEÁRIO PINHAL;4301636;CIDADE;-50.2367010760971;-30.2397509262124
CIDREIRA;4305454;CIDADE;-50.2090923338719;-30.1811699853416
OSÓRIO;4313508;CIDADE;-50.2667978126156;-29.8926970767016
TRAMANDAÍ;4321600;CIDADE;-50.1303765006803;-29.9873019463652
IMBÉ;4310330;CIDADE;-50.1305799407181;-29.9747778198529
MAQUINÉ;4311775;CIDADE;-50.20339481262931;-29.6791370120842
ITATI;4310652;CIDADE;-50.1017822613948;-29.5002484946664
XANGRI-LÁ;4323804;CIDADE;-50.0390814237967;-29.8053781845961
CAPÃO DA CANOA;4304630;CIDADE;-50.0200224442732;-29.7614666393062
TERRA DE AREIA;4321436;CIDADE;-50.0672491456318;-29.5775485672354
TRÊS FORQUILHAS;4321832;CIDADE;-50.0643164805228;-29.5381105454803
ARROIO DO SAL;4301057;CIDADE;-49.93295751797799;-29.5929607431547
JAQUIRANA;4311122;CIDADE;-50.3580367222002;-28.8805675905509
CAMBARÁ DO SUL;4303608;CIDADE;-50.1437653842536;-29.0481752726442
MORRINHOS DO SUL;4312443;CIDADE;-49.932762974333;-29.3629636292355
PRAIA GRANDE;4213807;CIDADE;-49.960591976336;-29.1957763628134
MAMPITUBA;4311734;CIDADE;-49.9365135523956;-29.21064941892021
TRÊS CACHOEIRAS;4321667;CIDADE;-49.9156392761957;-29.44588658960871
DOM PEDRO DE ALCÂNTARA;4306551;CIDADE;-49.8495499617296;-29.3701870782974
SÃO JOÃO DO SUL;4216404;CIDADE;-49.806571385692;-29.2234797904439
JACINTO MACHADO;4208708;CIDADE;-49.761768656406;-29.0014186130228
TORRES;4321501;CIDADE;-49.7304044945034;-29.3359306135292
PASSO DE TORRES;4212254;CIDADE;-49.725145272462;-29.3234599042981
SANTA ROSA DO SUL;4215653;CIDADE;-49.7176263735924;-29.1352882177613
SOMBRIO;4217709;CIDADE;-49.63421036413409;-29.1091327560235
TURVO;4218806;CIDADE;-49.6808657451159;-28.9247492165889
ERMO;4205191;CIDADE;-49.6434049775486;-28.9850817914507
BALNEÁRIO GAIVOTA;4202073;CIDADE;-49.5908937823551;-29.1645212677308
ARARANGUÁ;4201406;CIDADE;-49.480966523633;-28.935752013401
BALNEÁRIO ARROIO DO SILVA;4201950;CIDADE;-49.40570279913701;-28.980402453959
ESPUMOSO;4307500;CIDADE;-52.841926970944;-28.7314451417484
SELBACH;4320305;CIDADE;-52.9565252738362;-28.6274338058369
TAPERA;4321006;CIDADE;-52.8714671740768;-28.6249501903715
LAGOA DOS TRÊS CANTOS;4311270;CIDADE;-52.85783524240449;-28.569468131954
MORMAÇO;4312427;CIDADE;-52.6928263150565;-28.693351219424
NÃO-ME-TOQUE;4312658;CIDADE;-52.8192794924234;-28.4599067650841
VICTOR GRAEFF;4323200;CIDADE;-52.7477917888999;-28.5601846243556
CARAZINHO;4304705;CIDADE;-52.7918973881038;-28.286510590107
SANTO ANTÔNIO DO PLANALTO;4317756;CIDADE;-52.6837258444323;-28.3959289058412
SOLEDADE;4320800;CIDADE;-52.5098661711662;-28.8277379528717
TIO HUGO;4321469;CIDADE;-52.593046116066;-28.5804960157612
IBIRAPUITÃ;4309951;CIDADE;-52.5193855878489;-28.6150204143695
ERNESTINA;4307054;CIDADE;-52.5721762088587;-28.497154689745
NICOLAU VERGUEIRO;4312674;CIDADE;-52.4624006731904;-28.5362148130741
PASSO FUNDO;4314100;CIDADE;-52.4070950926172;-28.2617671271174
ALMIRANTE TAMANDARÉ DO SUL;4300471;CIDADE;-52.9137145496944;-28.1137262862529
COQUEIROS DO SUL;4305850;CIDADE;-52.7788008455504;-28.1174283198432
PONTÃO;4314779;CIDADE;-52.6753994466165;-28.0618408385805
SARANDI;4320107;CIDADE;-52.9254610594471;-27.9435951771224
RONDINHA;4316204;CIDADE;-52.9061601564804;-27.8318159695896
ENGENHO VELHO;4306924;CIDADE;-52.9119205030241;-27.7085865188878
RONDA ALTA;4316105;CIDADE;-52.8065335255691;-27.7819313520882
CRUZALTENSE;4306130;CIDADE;-52.6481429882271;-27.6648881077978
CAMPINAS DO SUL;4303806;CIDADE;-52.63310447777629;-27.7116014153242
JACUTINGA;4310900;CIDADE;-52.5431728064304;-27.728493632789
PONTE PRETA;4314787;CIDADE;-52.4902319212427;-27.6570399692974
IPIRANGA DO SUL;4310462;CIDADE;-52.4250606441447;-27.9359842840729
QUATRO IRMÃOS;4315313;CIDADE;-52.44276860450621;-27.8211966879008
PAULO BENTO;4314134;CIDADE;-52.4224356311043;-27.7041002819308
ITAPUCA;4310579;CIDADE;-52.1723668452035;-28.7802957021844
NOVA ALVORADA;4312757;CIDADE;-52.16713391729131;-28.6765644320029
CAMARGO;4303558;CIDADE;-52.2037989732514;-28.5892375307537
MONTAURI;4312351;CIDADE;-52.0761081911119;-28.6532071842608
MARAU;4311809;CIDADE;-52.1967769340001;-28.4484539264856
MATO CASTELHANO;4312138;CIDADE;-52.19726088120429;-28.2757617404604
VILA MARIA;4323408;CIDADE;-52.1635378990709;-28.5333142342062
SANTO ANTÔNIO DO PALMA;4317558;CIDADE;-52.0246330595594;-28.4974451037379
GENTIL;4308854;CIDADE;-52.0345235699367;-28.4338484662253
UNIÃO DA SERRA;4322350;CIDADE;-52.0004166642531;-28.7798985670349
GUAPORÉ;4309407;CIDADE;-51.8906506874927;-28.8491336396526
SERAFINA CORRÊA;4320404;CIDADE;-51.93570860994029;-28.7107970706117
VISTA ALEGRE DO PRATA;4323606;CIDADE;-51.7862084024789;-28.8094722961142
NOVA BASSANO;4312906;CIDADE;-51.70323141739579;-28.7234686408211
PARAÍ;4314001;CIDADE;-51.78209604505669;-28.5996205329391
NOVA ARAÇÁ;4312807;CIDADE;-51.74216463396731;-28.6581760362779
CASCA;4304903;CIDADE;-51.98323265741641;-28.5598740160493
SÃO DOMINGOS DO SUL;4318051;CIDADE;-51.8931867141812;-28.5317631260069
VANINI;4322558;CIDADE;-51.8446581973908;-28.4762225141844
DAVID CANABARRO;4306304;CIDADE;-51.852249056523;-28.3846115332703
CIRÍACO;4305504;CIDADE;-51.8830312919558;-28.3443025427257
GUABIJU;4309258;CIDADE;-51.6910473580747;-28.5406715302467
SÃO JORGE;4318440;CIDADE;-51.70296858933929;-28.4980809702098
MULITERNO;4312625;CIDADE;-51.7687012353332;-28.3302653554856
CASEIROS;4304952;CIDADE;-51.69268282233029;-28.2735654694935
COXILHA;4305975;CIDADE;-52.3002778295103;-28.1213417099943
SERTÃO;4320503;CIDADE;-52.25973786114551;-27.9807735540652
VILA LÂNGARO;4323358;CIDADE;-52.1469033571178;-28.1074051979761
ÁGUA SANTA;4300059;CIDADE;-52.0346327891623;-28.175054747726
TAPEJARA;4320909;CIDADE;-52.02213252766411;-28.0841710589218
ESTAÇÃO;4307559;CIDADE;-52.2704857966567;-27.9090063407478
EREBANGO;4306973;CIDADE;-52.2997114029771;-27.8491959400804
GETÚLIO VARGAS;4308904;CIDADE;-52.249574123331;-27.8759119297453
FLORIANO PEIXOTO;4308250;CIDADE;-52.0856070999391;-27.8625092771194
CHARRUA;4305371;CIDADE;-52.02941195351351;-27.9528311002878
ÁUREA;4301552;CIDADE;-52.0541756691329;-27.693786649614
SANTA CECÍLIA DO SUL;4316733;CIDADE;-51.9266712610956;-28.1644511041875
IBIAÇÁ;4309803;CIDADE;-51.85725209022009;-28.048849520707
CENTENÁRIO;4305116;CIDADE;-52.0020538458457;-27.7628471296156
CARLOS GOMES;4304853;CIDADE;-51.9175762298652;-27.714892074309
SANANDUVA;4316600;CIDADE;-51.81350191394561;-27.9440065094146
SÃO JOÃO DA URTIGA;4318424;CIDADE;-51.8258385475929;-27.8266899647341
PAIM FILHO;4313607;CIDADE;-51.76159664094611;-27.7033080731551
TRINDADE DO SUL;4321956;CIDADE;-52.8922310209657;-27.5175759340584
TRÊS PALMEIRAS;4321857;CIDADE;-52.8437143501482;-27.6175274492058
GRAMADO DOS LOUREIROS;4309126;CIDADE;-52.9182179830321;-27.4443850206347
ENTRE RIOS DO SUL;4306957;CIDADE;-52.7350679521256;-27.5288579308624
NONOAI;4312708;CIDADE;-52.7761885672359;-27.3546645317141
FAXINALZINHO;4308052;CIDADE;-52.6705912421647;-27.4254155061363
RIO DOS ÍNDIOS;4315552;CIDADE;-52.8400578928292;-27.2983975944503
CAXAMBU DO SUL;4204103;CIDADE;-52.8804748928922;-27.1612817840968
PLANALTO ALEGRE;4213153;CIDADE;-52.8673520307871;-27.0694597753142
GUATAMBÚ;4206652;CIDADE;-52.7838401342671;-27.1369108651372
BENJAMIN CONSTANT DO SUL;4302055;CIDADE;-52.60222500472191;-27.5085835618841
SÃO VALENTIM;4319703;CIDADE;-52.5284789422219;-27.5543183304484
ERVAL GRANDE;4307203;CIDADE;-52.5701120523532;-27.3933366737363
BARÃO DE COTEGIPE;4301701;CIDADE;-52.3777503250275;-27.6170925663677
ITATIBA DO SUL;4310702;CIDADE;-52.4524432547055;-27.3832919392847
BARRA DO RIO AZUL;4301925;CIDADE;-52.4141049464501;-27.4087577146806
PAIAL;4211876;CIDADE;-52.5010887492735;-27.2551577933448
CHAPECÓ;4204202;CIDADE;-52.61703111341381;-27.1068370207674
ITÁ;4208005;CIDADE;-52.3291825163272;-27.2817787167067
ARVOREDO;4201653;CIDADE;-52.4577888411626;-27.0735335573922
XAVANTINA;4219606;CIDADE;-52.3428505099137;-27.0702501463093
NOVA ERECHIM;4211405;CIDADE;-52.9112866654386;-26.90127339732
NOVA ITABERABA;4211454;CIDADE;-52.81124405489;-26.94288988287361
ÁGUAS FRIAS;4200556;CIDADE;-52.8594194493505;-26.880227542263
UNIÃO DO OESTE;4218855;CIDADE;-52.8514964564325;-26.7617370129883
CORONEL FREITAS;4204400;CIDADE;-52.7091514565173;-26.9032514110491
QUILOMBO;4214201;CIDADE;-52.7276095700875;-26.7400555490554
SUL BRASIL;4217758;CIDADE;-52.9642047957299;-26.7369362089473
IRATI;4207858;CIDADE;-52.8950113563078;-26.6572269440429
JARDINÓPOLIS;4208955;CIDADE;-52.8588992560494;-26.7205694027447
SÃO BERNARDINO;4215752;CIDADE;-52.96553873973739;-26.4732782455023
NOVO HORIZONTE;4211652;CIDADE;-52.8340333904853;-26.4461719894538
FORMOSA DO SUL;4205431;CIDADE;-52.7934500252739;-26.6485233774967
SANTIAGO DO SUL;4215695;CIDADE;-52.675949479347;-26.6348090901399
CORONEL MARTINS;4204459;CIDADE;-52.6696992888121;-26.5116375945381
GALVÃO;4205605;CIDADE;-52.682002075558;-26.4554762376277
CORDILHEIRA ALTA;4204350;CIDADE;-52.6032512708199;-26.9850812915617
XAXIM;4219705;CIDADE;-52.5349325183039;-26.9637194984738
LAJEADO GRANDE;4209458;CIDADE;-52.5660348495432;-26.86094234485
MAREMA;4210555;CIDADE;-52.62713541005591;-26.8004219079945
XANXERÊ;4219507;CIDADE;-52.4046671389754;-26.8745844984772
ENTRE RIOS;4205175;CIDADE;-52.562533967831;-26.7236210945327
SÃO DOMINGOS;4216107;CIDADE;-52.5372274685343;-26.5578303687635
IPUAÇU;4207684;CIDADE;-52.454296911798;-26.6325600969252
BOM JESUS;4202537;CIDADE;-52.3930159598262;-26.7359234348194
ABELARDO LUZ;4200101;CIDADE;-52.33648238332369;-26.5630310216893
ERECHIM;4307005;CIDADE;-52.2758768978871;-27.6334058100252
ARATIBA;4300901;CIDADE;-52.3038319547884;-27.3944441281235
GAURAMA;4308706;CIDADE;-52.1001384605265;-27.5838577554866
TRÊS ARROIOS;4321634;CIDADE;-52.14985207427;-27.4995162176143
VIADUTOS;4322905;CIDADE;-52.0237987496513;-27.5709530593094
SEVERIANO DE ALMEIDA;4320602;CIDADE;-52.120656296054;-27.4327929828548
MARIANO MORO;4312005;CIDADE;-52.148891817328;-27.3526127875769
SEARA;4217501;CIDADE;-52.3028548279905;-27.145697622108
CONCÓRDIA;4204301;CIDADE;-52.0239710697483;-27.2336587792856
ARABUTÃ;4201273;CIDADE;-52.1485992606982;-27.157403695176
IPUMIRIM;4207700;CIDADE;-52.1405408667672;-27.0683263630074
LINDÓIA DO SUL;4209854;CIDADE;-52.0809226441985;-27.047464480717
MARCELINO RAMOS;4311908;CIDADE;-51.91331894372739;-27.4613912120969
ALTO BELA VISTA;4200754;CIDADE;-51.9110368540592;-27.4311378745566
PERITIBA;4212601;CIDADE;-51.9098146670515;-27.3773092807288
MAXIMILIANO DE ALMEIDA;4312203;CIDADE;-51.8017181970059;-27.634940650985
IPIRA;4207601;CIDADE;-51.7708536189115;-27.4097088474569
PIRATUBA;4213104;CIDADE;-51.7586498276128;-27.4159535509459
PRESIDENTE CASTELLO BRANCO;4213906;CIDADE;-51.81137553824641;-27.2199421938466
JABORÁ;4208609;CIDADE;-51.7433538390133;-27.1728530861076
FAXINAL DOS GUEDES;4205308;CIDADE;-52.27141539870851;-26.859786720591
VARGEÃO;4219101;CIDADE;-52.154105650118;-26.8639833166094
PONTE SERRADA;4213401;CIDADE;-52.014537512533;-26.8749128268818
PASSOS MAIA;4212270;CIDADE;-52.061723800427;-26.7808891464326
OURO VERDE;4211850;CIDADE;-52.3100192014426;-26.69599441882
IRANI;4207809;CIDADE;-51.9041079240294;-27.0161866883519
VARGEM BONITA;4219176;CIDADE;-51.7447401814046;-27.0032416037453
PALMAS;4117602;CIDADE;-51.9887738877128;-26.4814725142464
NOVA PRATA;4313300;CIDADE;-51.6089956920177;-28.7839447123934
VILA FLORES;4323309;CIDADE;-51.5495890891784;-28.8630001294523
ANDRÉ DA ROCHA;4300661;CIDADE;-51.57373797120091;-28.6319772020878
PROTÁSIO ALVES;4315172;CIDADE;-51.4736316972583;-28.7567128303889
IBIRAIARAS;4309902;CIDADE;-51.6353239891883;-28.3692267286586
ANTÔNIO PRADO;4300802;CIDADE;-51.28357692434089;-28.8554376238318
IPÊ;4310439;CIDADE;-51.2799101922001;-28.818328031033
CAMPESTRE DA SERRA;4303673;CIDADE;-51.0956640048374;-28.7965122461011
MUITOS CAPÕES;4312617;CIDADE;-51.18460234489569;-28.3189128006921
LAGOA VERMELHA;4311304;CIDADE;-51.5272285291447;-28.2088702454259
CAPÃO BONITO DO SUL;4304622;CIDADE;-51.3951584627035;-28.1259752941398
SANTO EXPEDITO DO SUL;4317954;CIDADE;-51.64357217432559;-27.9093694238334
TUPANCI DO SUL;4322186;CIDADE;-51.54053901168471;-27.9257114651511
CACIQUE DOBLE;4303202;CIDADE;-51.6641134498382;-27.768232465238
SÃO JOSÉ DO OURO;4318606;CIDADE;-51.5947676779911;-27.7712554057066
BARRACÃO;4301800;CIDADE;-51.46015145837849;-27.6802298706131
ESMERALDA;4307401;CIDADE;-51.1887936624614;-28.0572763472005
PINHAL DA SERRA;4314464;CIDADE;-51.17010272373399;-27.8766645859908
ANITA GARIBALDI;4201000;CIDADE;-51.1311938712633;-27.6837772892786
MONTE ALEGRE DOS CAMPOS;4312377;CIDADE;-50.7828337051116;-28.6850717749237
VACARIA;4322509;CIDADE;-50.9365991641211;-28.5023543943946
BOM JESUS;4302303;CIDADE;-50.4333492699802;-28.670577674848
CAMPO BELO DO SUL;4203402;CIDADE;-50.7619937519385;-27.8966573864858
CERRO NEGRO;4204178;CIDADE;-50.8700622646788;-27.7958280669596
SÃO JOSÉ DO CERRITO;4216800;CIDADE;-50.5813861763305;-27.6685865179769
CAPÃO ALTO;4203253;CIDADE;-50.5114792925864;-27.9416852810334
MACHADINHO;4311700;CIDADE;-51.6675073604692;-27.568139969134
ZORTÉA;4219853;CIDADE;-51.5495663068408;-27.4502514109095
OURO;4211801;CIDADE;-51.620562178214;-27.3424881716654
CAPINZAL;4203907;CIDADE;-51.61136275517589;-27.3442784634457
LACERDÓPOLIS;4209201;CIDADE;-51.5628663690798;-27.264600090453
CATANDUVAS;4204004;CIDADE;-51.6589480985776;-27.0720352208058
ERVAL VELHO;4205209;CIDADE;-51.4434329044499;-27.2738954838693
JOAÇABA;4209003;CIDADE;-51.5066897333377;-27.1739445284657
HERVAL D'OESTE;4206702;CIDADE;-51.4962153102599;-27.1703031839402
LUZERNA;4210035;CIDADE;-51.4679460432033;-27.1298960684448
IBICARÉ;4206801;CIDADE;-51.3684502619661;-27.0915490152895
CELSO RAMOS;4204152;CIDADE;-51.3359938247645;-27.6347386045941
CAMPOS NOVOS;4203600;CIDADE;-51.2236729932379;-27.3990529784572
IBIAM;4206751;CIDADE;-51.2394276982807;-27.1805834756441
TANGARÁ;4217907;CIDADE;-51.245914375254;-27.1010111034619
PINHEIRO PRETO;4213005;CIDADE;-51.2305364835274;-27.0451346152864
ÁGUA DOCE;4200408;CIDADE;-51.5590965552946;-27.0040916580963
TREZE TÍLIAS;4218509;CIDADE;-51.4146746650895;-26.9985363051069
SALTO VELOSO;4215406;CIDADE;-51.4052080779569;-26.9031646069298
MACIEIRA;4210050;CIDADE;-51.3761219769561;-26.855212387787
ARROIO TRINTA;4201604;CIDADE;-51.3341239238805;-26.9325648559185
IOMERÊ;4207577;CIDADE;-51.24061909787579;-27.001078050023
VIDEIRA;4219309;CIDADE;-51.1517052828326;-27.0061290672059
RIO DAS ANTAS;4214409;CIDADE;-51.0760199431708;-26.89706743514361
CALMON;4203154;CIDADE;-51.09663490459809;-26.6046771763173
MATOS COSTA;4210704;CIDADE;-51.1574514436102;-26.4741154344491
ABDON BATISTA;4200051;CIDADE;-51.02527221103671;-27.608987122561
VARGEM;4219150;CIDADE;-50.97815062565489;-27.4899700996565
MONTE CARLO;4211058;CIDADE;-50.9741046780325;-27.217678801311
BRUNÓPOLIS;4202875;CIDADE;-50.83592077195069;-27.3183621500541
FREI ROGÉRIO;4205555;CIDADE;-50.8064082491164;-27.1747514984653
CURITIBANOS;4204806;CIDADE;-50.5826010352621;-27.2829825056971
SÃO CRISTOVÃO DO SUL;4216057;CIDADE;-50.434628933086;-27.2829466726297
PONTE ALTA DO NORTE;4213351;CIDADE;-50.46540426776569;-27.16902918213111
FRAIBURGO;4205506;CIDADE;-50.9250792352346;-27.0234469619419
CAÇADOR;4203006;CIDADE;-51.0190347589981;-26.7753476719588
LEBON RÉGIS;4209706;CIDADE;-50.69182786444809;-26.9291140104077
SANTA CECÍLIA;4215505;CIDADE;-50.4229016203405;-26.9569007438512
TIMBÓ GRANDE;4218251;CIDADE;-50.6746741364894;-26.6178284902876
SÃO LOURENÇO DO OESTE;4216909;CIDADE;-52.8513336669502;-26.3551901637992
JUPIÁ;4209177;CIDADE;-52.73438054075789;-26.3937028172771
VITORINO;4128708;CIDADE;-52.7770814458028;-26.2643442866176
PATO BRANCO;4118501;CIDADE;-52.6773619976723;-26.2299585142514
BOM SUCESSO DO SUL;4103222;CIDADE;-52.8319762720658;-26.0745371395437
VERÊ;4128609;CIDADE;-52.90859307983119;-25.8806316028132
ITAPEJARA D'OESTE;4111209;CIDADE;-52.8139296045112;-25.9708780508996
SÃO JOÃO;4124806;CIDADE;-52.7294732188134;-25.824662935404
MARIÓPOLIS;4115309;CIDADE;-52.5577480020641;-26.3558427419657
CLEVELÂNDIA;4105706;CIDADE;-52.352986201218;-26.4052052926094
HONÓRIO SERPA;4109658;CIDADE;-52.3830290561902;-26.1429662062576
CORONEL VIVIDA;4106506;CIDADE;-52.56708663537599;-25.9781534973136
CHOPINZINHO;4105409;CIDADE;-52.5339602074992;-25.8546838480248
SÃO JORGE D'OESTE;4125209;CIDADE;-52.9201031661411;-25.7149480988538
SULINA;4126652;CIDADE;-52.71659652036269;-25.6996322437846
QUEDAS DO IGUAÇU;4120903;CIDADE;-52.9098324023128;-25.4567808500965
ESPIGÃO ALTO DO IGUAÇU;4107546;CIDADE;-52.83821349869021;-25.4266700609671
SAUDADE DO IGUAÇU;4126272;CIDADE;-52.6143393739758;-25.6936611639036
PORTO BARREIRO;4120150;CIDADE;-52.40478676271259;-25.5451856376523
RIO BONITO DO IGUAÇU;4122156;CIDADE;-52.52688978295939;-25.48690880847421
NOVA LARANJEIRAS;4117057;CIDADE;-52.5393704514689;-25.3067459158287
LARANJEIRAS DO SUL;4113304;CIDADE;-52.4088474232637;-25.4016815094352
CORONEL DOMINGOS SOARES;4106456;CIDADE;-52.0345386761735;-26.2265477676971
MANGUEIRINHA;4114401;CIDADE;-52.1763258293897;-25.9429813408092
RESERVA DO IGUAÇU;4121752;CIDADE;-52.0287624631417;-25.8309580353069
FOZ DO JORDÃO;4108452;CIDADE;-52.12562753183111;-25.7334396195211
CANDÓI;4104428;CIDADE;-52.0554464047832;-25.5679318451085
VIRMOND;4128658;CIDADE;-52.2025433047369;-25.378765984394
CANTAGALO;4104451;CIDADE;-52.1266876349423;-25.3743173853097
GUARANIAÇU;4109302;CIDADE;-52.8696324396125;-25.0986499158448
DIAMANTE DO SUL;4107124;CIDADE;-52.6881907613318;-25.0351919275861
ALTAMIRA DO PARANÁ;4100459;CIDADE;-52.7098074466916;-24.8010001627766
NOVA CANTU;4116802;CIDADE;-52.5709921605331;-24.6707788442803
LARANJAL;4113254;CIDADE;-52.4716661790835;-24.8883015832483
CAMPINA DA LAGOA;4103909;CIDADE;-52.8135641546009;-24.5949565813188
RANCHO ALEGRE D'OESTE;4121356;CIDADE;-52.95112583983439;-24.3090100116558
JURANDA;4112959;CIDADE;-52.8444864982627;-24.4163906487304
BOA ESPERANÇA;4103008;CIDADE;-52.7927774592961;-24.2394931585392
JANIÓPOLIS;4112207;CIDADE;-52.782551780046;-24.1414499410863
MAMBORÊ;4114005;CIDADE;-52.5290941575477;-24.3218130800309
FAROL;4107553;CIDADE;-52.6262151802103;-24.0990946179755
CAMPO MOURÃO;4104303;CIDADE;-52.3811150855647;-24.0412231960172
MARQUINHO;4115457;CIDADE;-52.2569829527735;-25.1122123606045
GOIOXIM;4108650;CIDADE;-52.0055879661652;-25.2015403103757
PALMITAL;4117800;CIDADE;-52.2129972267238;-24.8822436766195
MATO RICO;4115739;CIDADE;-52.146258579849;-24.7073171871651
SANTA MARIA DO OESTE;4123857;CIDADE;-51.8677097950836;-24.934183996161
CAMPINA DO SIMÃO;4103958;CIDADE;-51.8147865320916;-25.1025784690777
PITANGA;4119608;CIDADE;-51.7631540083928;-24.7527477526965
RONCADOR;4122503;CIDADE;-52.2760525503737;-24.5951071872821
IRETAMA;4110805;CIDADE;-52.101576622284;-24.4211415586663
LUIZIANA;4113734;CIDADE;-52.2819056183387;-24.2800814119624
CORUMBATAÍ DO SUL;4106555;CIDADE;-52.1241853003798;-24.0974123845451
BARBOSA FERRAZ;4102505;CIDADE;-52.0071166854286;-24.027715464593
NOVA TEBAS;4117271;CIDADE;-51.9503961103527;-24.4383252104423
ARAPUÃ;4101655;CIDADE;-51.7913175642778;-24.3087023857029
GODOY MOREIRA;4108551;CIDADE;-51.9243682163217;-24.1928594478904
JARDIM ALEGRE;4112504;CIDADE;-51.6943350083947;-24.1811374448576
LUNARDELLI;4113759;CIDADE;-51.7445483867649;-24.0780463599736
BITURUNA;4102901;CIDADE;-51.5565252574649;-26.1607944750935
GENERAL CARNEIRO;4108502;CIDADE;-51.3168589232395;-26.4258025258376
PORTO VITÓRIA;4120309;CIDADE;-51.2366947363773;-26.1634752034466
UNIÃO DA VITÓRIA;4128203;CIDADE;-51.0906095229867;-26.2284344992514
PORTO UNIÃO;4213609;CIDADE;-51.0816046335966;-26.2300048973375
CRUZ MACHADO;4106803;CIDADE;-51.3477095246118;-26.017268877464
PINHÃO;4119301;CIDADE;-51.6482701915018;-25.6962950092623
GUARAPUAVA;4109401;CIDADE;-51.4634310776746;-25.3935919792685
INÁCIO MARTINS;4110201;CIDADE;-51.0749452987122;-25.5721626862519
PAULA FREITAS;4118600;CIDADE;-50.93473633625489;-26.220102158912
IRINEÓPOLIS;4207908;CIDADE;-50.80390004981311;-26.2366129363535
PAULO FRONTIN;4118709;CIDADE;-50.8331964537166;-26.0456075769652
MALLET;4113908;CIDADE;-50.8275686221384;-25.8737880837862
BELA VISTA DO TOLDO;4202131;CIDADE;-50.4647882384698;-26.2762282775885
RIO AZUL;4122008;CIDADE;-50.7871729819706;-25.7161131767596
PRUDENTÓPOLIS;4120606;CIDADE;-50.983575090629;-25.2160204992722
REBOUÇAS;4121505;CIDADE;-50.6812544333183;-25.6263927550293
IRATI;4110706;CIDADE;-50.6580481227738;-25.4737362981941
IMBITUVA;4110102;CIDADE;-50.5974729665313;-25.230613037494
FERNANDES PINHEIRO;4107736;CIDADE;-50.5474142544109;-25.4122422972223
TEIXEIRA SOARES;4127007;CIDADE;-50.4656469824186;-25.3800492069776
TURVO;4127965;CIDADE;-51.5327643273371;-25.0401268023774
BOA VENTURA DE SÃO ROQUE;4103040;CIDADE;-51.53937383703149;-24.8785175854321
MANOEL RIBAS;4114500;CIDADE;-51.66907859507069;-24.5217308766938
ARIRANHA DO IVAÍ;4101853;CIDADE;-51.5879178388767;-24.3832887440802
IVAIPORÃ;4111506;CIDADE;-51.6745520468117;-24.241948019293
LIDIANÓPOLIS;4113429;CIDADE;-51.6541506163069;-24.1067664126134
GRANDES RIOS;4108700;CIDADE;-51.50874239912619;-24.1461940115092
CÂNDIDO DE ABREU;4104402;CIDADE;-51.3325805083905;-24.5646691191821
RIO BRANCO DO IVAÍ;4122172;CIDADE;-51.3120655882648;-24.3202776005855
ROSÁRIO DO IVAÍ;4122651;CIDADE;-51.2499448251477;-24.2535525551983
FAXINAL;4107603;CIDADE;-51.3201059317839;-24.0039270715253
GUAMIRANGA;4108957;CIDADE;-50.80987590066771;-25.189909452903
IVAÍ;4111407;CIDADE;-50.86142570412661;-25.0082625817946
RESERVA;4121703;CIDADE;-50.8505958054306;-24.6516479992842
IPIRANGA;4110508;CIDADE;-50.58124013439059;-25.0130228275086
IMBAÚ;4110078;CIDADE;-50.7493089935498;-24.442797083013
ORTIGUEIRA;4117305;CIDADE;-50.9269295381431;-24.21201066819
TELÊMACO BORBA;4127106;CIDADE;-50.6231227231312;-24.3286859692912
TIBAGI;4127502;CIDADE;-50.4114701228325;-24.5132880671366
CURIÚVA;4107009;CIDADE;-50.4594055244877;-24.0358255885853
SÃO JOSÉ DOS AUSENTES;4318622;CIDADE;-50.0636129376329;-28.7499064312377
TIMBÉ DO SUL;4218103;CIDADE;-49.8441177627943;-28.8325174926818
SÃO JOAQUIM;4216503;CIDADE;-49.9367417605442;-28.29471249842401
LAGES;4209300;CIDADE;-50.3302224241895;-27.81725946233451
PAINEL;4211892;CIDADE;-50.11300974097929;-27.9145181846467
BOCAINA DO SUL;4202438;CIDADE;-49.9458979108069;-27.7431983061599
URUPEMA;4218954;CIDADE;-49.8732112423988;-27.9526858090342
RIO RUFINO;4215059;CIDADE;-49.7775918042695;-27.8632354784629
MORRO GRANDE;4211256;CIDADE;-49.71879998384179;-28.7997195358615
MELEIRO;4210803;CIDADE;-49.6298493602249;-28.8324458200631
MARACAJÁ;4210407;CIDADE;-49.4543763245932;-28.8503146061766
FORQUILHINHA;4205456;CIDADE;-49.46886105336149;-28.7424153500818
NOVA VENEZA;4211603;CIDADE;-49.5031235817322;-28.6382326015067
BOM JARDIM DA SERRA;4202503;CIDADE;-49.6249777453381;-28.3379471901877
TREVISO;4218350;CIDADE;-49.455933378851;-28.5184848571487
CRICIÚMA;4204608;CIDADE;-49.36593955882221;-28.6735722518798
SIDERÓPOLIS;4217600;CIDADE;-49.420540933003;-28.595102417441
IÇARA;4207007;CIDADE;-49.3008225783231;-28.7070840084091
COCAL DO SUL;4204251;CIDADE;-49.3271287199039;-28.6030228644837
MORRO DA FUMAÇA;4211207;CIDADE;-49.2132565084377;-28.6547878422451
SANGÃO;4215455;CIDADE;-49.1340298641987;-28.633222922118
URUSSANGA;4219002;CIDADE;-49.3191079185647;-28.519966203129
LAURO MULLER;4209607;CIDADE;-49.39430726724739;-28.393585164473
ORLEANS;4211702;CIDADE;-49.2914262911017;-28.3604689654962
TREZE DE MAIO;4218400;CIDADE;-49.1448153071747;-28.5581400367212
PEDRAS GRANDES;4212403;CIDADE;-49.186487547356;-28.4372176489551
SÃO LUDGERO;4217006;CIDADE;-49.17568432471929;-28.3268955242871
BRAÇO DO NORTE;4202800;CIDADE;-49.1645477089486;-28.2800388665557
URUBICI;4218905;CIDADE;-49.5882056111042;-28.0045549112502
BOM RETIRO;4202602;CIDADE;-49.4898337660812;-27.7986710006472
GRÃO PARÁ;4206108;CIDADE;-49.2199960405178;-28.1839865254512
SANTA ROSA DE LIMA;4215604;CIDADE;-49.1250913029394;-28.0356055720599
ALFREDO WAGNER;4200705;CIDADE;-49.34381230115281;-27.7053963312602
ANITÁPOLIS;4201109;CIDADE;-49.1315993662195;-27.9098868965521
CORREIA PINTO;4204558;CIDADE;-50.363760554615;-27.584808344196
PONTE ALTA;4213302;CIDADE;-50.3771006508207;-27.4677840720196
PALMEIRA;4212056;CIDADE;-50.1590014055927;-27.5822620696775
OTACÍLIO COSTA;4211751;CIDADE;-50.1123146891291;-27.5038461742349
BRAÇO DO TROMBUDO;4202859;CIDADE;-49.89090793595129;-27.364251344354
AGROLÂNDIA;4200200;CIDADE;-49.82565338772839;-27.400516587227
ATALANTA;4201802;CIDADE;-49.7794566741424;-27.4205360010688
MIRIM DOCE;4210852;CIDADE;-50.06856371237539;-27.2012050823698
POUSO REDONDO;4213708;CIDADE;-49.9556521355194;-27.2510862774419
TAIÓ;4217808;CIDADE;-50.0050964642724;-27.1179372994543
TROMBUDO CENTRAL;4218608;CIDADE;-49.79247823405599;-27.3030195283207
RIO DO OESTE;4214607;CIDADE;-49.8028622167011;-27.1911665172426
RIO DO CAMPO;4214508;CIDADE;-50.1395889130392;-26.9423084303659
MONTE CASTELO;4211108;CIDADE;-50.2262714328843;-26.4563624714101
SALETE;4215307;CIDADE;-50.0017307310962;-26.97524433266811
SANTA TEREZINHA;4215679;CIDADE;-50.0055291871441;-26.7809823531935
WITMARSUM;4219408;CIDADE;-49.8042033754401;-26.9267427226336
VITOR MEIRELES;4219358;CIDADE;-49.8307519609684;-26.8815776178166
PETROLÂNDIA;4212700;CIDADE;-49.6948686231007;-27.5281268322264
ITUPORANGA;4208500;CIDADE;-49.60341470113299;-27.4148584898957
CHAPADÃO DO LAGEADO;4204194;CIDADE;-49.5443259548905;-27.5852982504261
AGRONÔMICA;4200309;CIDADE;-49.71836889075539;-27.2697161063764
LAURENTINO;4209508;CIDADE;-49.75526366097989;-27.212388100834
AURORA;4201901;CIDADE;-49.6436279074818;-27.2990294938408
RIO DO SUL;4214805;CIDADE;-49.6432375290983;-27.2179032246709
LONTRAS;4209904;CIDADE;-49.5448293546842;-27.1574865629586
IBIRAMA;4206900;CIDADE;-49.52202775922551;-27.053540884149
LEOBERTO LEAL;4209805;CIDADE;-49.28940149897991;-27.5063895148832
IMBUIA;4207403;CIDADE;-49.4277293449918;-27.4946042528637
VIDAL RAMOS;4219200;CIDADE;-49.3682191726114;-27.3957786979167
PRESIDENTE NEREU;4214102;CIDADE;-49.4032927710887;-27.2873292133392
APIÚNA;4201257;CIDADE;-49.3916376287528;-27.0418125973603
DONA EMMA;4205100;CIDADE;-49.7168977450524;-26.9863006129739
PRESIDENTE GETÚLIO;4214003;CIDADE;-49.6220861691379;-27.0414082403587
JOSÉ BOITEUX;4209151;CIDADE;-49.6238066864875;-26.9546826158058
DOUTOR PEDRINHO;4205159;CIDADE;-49.4792933619334;-26.7204609547831
ASCURRA;4201703;CIDADE;-49.38636342780631;-26.954775841731
RODEIO;4215109;CIDADE;-49.3047072334636;-26.943501667608
BENEDITO NOVO;4202206;CIDADE;-49.3644027494089;-26.7775075682417
TIMBÓ;4218202;CIDADE;-49.27771228979719;-26.8229025742274
INDAIAL;4207502;CIDADE;-49.2401404600146;-26.9062559984759
RIO DOS CEDROS;4214706;CIDADE;-49.2723794435685;-26.7491298154036
POMERODE;4213203;CIDADE;-49.1741975274002;-26.744826395743
JAGUARUNA;4208807;CIDADE;-49.0491289860852;-28.6249636884254
TUBARÃO;4218707;CIDADE;-49.00526807702451;-28.4800339470587
CAPIVARI DE BAIXO;4203956;CIDADE;-48.96057506809409;-28.4490455110342
GRAVATAL;4206207;CIDADE;-49.03947025816191;-28.3291307170538
IMARUÍ;4207205;CIDADE;-48.8146717195152;-28.3438499087369
LAGUNA;4209409;CIDADE;-48.7813886217994;-28.4835859531205
RIO FORTUNA;4214904;CIDADE;-49.105093802571;-28.1325913878527
ARMAZÉM;4201505;CIDADE;-49.012911084774;-28.2587054671294
SÃO MARTINHO;4217105;CIDADE;-48.97778624803571;-28.1644952888242
RANCHO QUEIMADO;4214300;CIDADE;-49.0084323799639;-27.6772088633334
SÃO BONIFÁCIO;4215901;CIDADE;-48.92931195859621;-27.8964966977453
ÁGUAS MORNAS;4200606;CIDADE;-48.8405384028278;-27.7065971909725
IMBITUBA;4207304;CIDADE;-48.6692841969228;-28.239951113226
GAROPABA;4205704;CIDADE;-48.61255668285379;-28.0208959340429
PAULO LOPES;4212304;CIDADE;-48.6814954135887;-27.9498162318052
SANTO AMARO DA IMPERATRIZ;4215703;CIDADE;-48.7802399213721;-27.6897477576849
ANGELINA;4200903;CIDADE;-48.98347606422539;-27.5822573512891
MAJOR GERCINO;4210209;CIDADE;-48.95335395888781;-27.4186604126487
BOTUVERÁ;4202701;CIDADE;-49.07848436192791;-27.2021068603971
GUABIRUBA;4206306;CIDADE;-48.98356044802281;-27.0603252384862
NOVA TRENTO;4211504;CIDADE;-48.92579543293451;-27.2877711660162
SÃO JOÃO BATISTA;4216305;CIDADE;-48.85700428024621;-27.2958805559684
BRUSQUE;4202909;CIDADE;-48.9151630055154;-27.0983102254449
SÃO PEDRO DE ALCÂNTARA;4217253;CIDADE;-48.7876695873071;-27.5671700926155
ANTÔNIO CARLOS;4201208;CIDADE;-48.7649600267553;-27.5133710508577
PALHOÇA;4211900;CIDADE;-48.67028791871219;-27.6470436829145
BIGUAÇU;4202305;CIDADE;-48.65448892895061;-27.4943227426967
SÃO JOSÉ;4216602;CIDADE;-48.61602271586639;-27.5903120764736
FLORIANÓPOLIS;4205407;CIDADE;-48.5476373781933;-27.5877955477749
CANELINHA;4203709;CIDADE;-48.7892731276779;-27.2724147938395
GOVERNADOR CELSO RAMOS;4206009;CIDADE;-48.5781665645095;-27.3186459067351
TIJUCAS;4218004;CIDADE;-48.6320705638696;-27.2394536064421
PORTO BELO;4213500;CIDADE;-48.6027567395843;-27.1494662089519
ITAPEMA;4208302;CIDADE;-48.6173993861423;-27.0959378829199
BOMBINHAS;4202453;CIDADE;-48.5213451348448;-27.1442546985654
BLUMENAU;4202404;CIDADE;-49.0576308843612;-26.9161077045444
GASPAR;4205902;CIDADE;-48.96770656812631;-26.9183685134755
ILHOTA;4207106;CIDADE;-48.82501400638959;-26.9046251824547
MASSARANDUBA;4210605;CIDADE;-48.9887446627143;-26.5954580139117
JARAGUÁ DO SUL;4208906;CIDADE;-49.07629882280219;-26.4904843486596
GUARAMIRIM;4206504;CIDADE;-48.9921042659495;-26.4744451275665
LUIZ ALVES;4210001;CIDADE;-48.9260467722994;-26.7211107859371
CAMBORIÚ;4203204;CIDADE;-48.64999585210061;-27.02645649847131
ITAJAÍ;4208203;CIDADE;-48.6570232083488;-26.9074262390374
NAVEGANTES;4211306;CIDADE;-48.64918290250909;-26.8974391185093
BALNEÁRIO PIÇARRAS;4212809;CIDADE;-48.6750513539987;-26.7691705377435
PENHA;4212502;CIDADE;-48.6475729112698;-26.7688610919839
BALNEÁRIO CAMBORIÚ;4202008;CIDADE;-48.63461747702651;-26.9918186044909
SÃO JOÃO DO ITAPERIÚ;4216354;CIDADE;-48.7677653867626;-26.6174540455554
BARRA VELHA;4202107;CIDADE;-48.68386427432401;-26.6343614075326
BALNEÁRIO BARRA DO SUL;4202057;CIDADE;-48.6066458760074;-26.4564295663644
MAJOR VIEIRA;4210308;CIDADE;-50.3329868433168;-26.3575265352549
CANOINHAS;4203808;CIDADE;-50.3978487118933;-26.1788070135048
PAPANDUVA;4212205;CIDADE;-50.1632041973224;-26.3939830700247
TRÊS BARRAS;4218301;CIDADE;-50.3054193679948;-26.1140963360137
SÃO MATEUS DO SUL;4125605;CIDADE;-50.3906242547046;-25.8695995042587
ANTÔNIO OLINTO;4101309;CIDADE;-50.1979472440033;-25.9867057792849
ITAIÓPOLIS;4208104;CIDADE;-49.9087562022231;-26.3371264104681
MAFRA;4210100;CIDADE;-49.8010375282692;-26.1152284935074
RIO NEGRO;4122305;CIDADE;-49.7976853768382;-26.100407969254
SÃO JOÃO DO TRIUNFO;4125100;CIDADE;-50.3080640619123;-25.691875063187
PORTO AMAZONAS;4120101;CIDADE;-49.8897208650407;-25.541572711338
PALMEIRA;4117701;CIDADE;-50.0032468209789;-25.4185679007343
RIO NEGRINHO;4215000;CIDADE;-49.5172950755857;-26.2553250271779
CAMPO DO TENENTE;4104105;CIDADE;-49.6903769402357;-25.9810056569807
QUITANDINHA;4121208;CIDADE;-49.4966829869198;-25.868308348538
SÃO BENTO DO SUL;4215802;CIDADE;-49.3869788951345;-26.2494854177902
CORUPÁ;4204509;CIDADE;-49.2267370000437;-26.4319663150574
CAMPO ALEGRE;4203303;CIDADE;-49.26334448205359;-26.1906592817167
PIÊN;4119103;CIDADE;-49.4282437421995;-26.0969563758076
AGUDOS DO SUL;4100301;CIDADE;-49.3387018845931;-25.9906180898519
TIJUCAS DO SUL;4127601;CIDADE;-49.1822439412764;-25.9201804794329
LAPA;4113205;CIDADE;-49.7185958084251;-25.7651024842609
BALSA NOVA;4102307;CIDADE;-49.6317559904068;-25.5784978067182
CONTENDA;4106209;CIDADE;-49.5316118696956;-25.6807663088526
CAMPO LARGO;4104204;CIDADE;-49.5288414503356;-25.45949049926711
MANDIRITUBA;4114302;CIDADE;-49.3227825970264;-25.7596206123546
ARAUCÁRIA;4101804;CIDADE;-49.4019396967087;-25.5916449992644
FAZENDA RIO GRANDE;4107652;CIDADE;-49.3232931947119;-25.64140021795721
SÃO JOSÉ DOS PINHAIS;4125506;CIDADE;-49.2000824656673;-25.5377019992655
CAMPO MAGRO;4104253;CIDADE;-49.4276649679895;-25.367956499269
ALMIRANTE TAMANDARÉ;4100400;CIDADE;-49.3003198184039;-25.3133776015465
CURITIBA;4106902;CIDADE;-49.2718478850774;-25.4329559992677
PINHAIS;4119152;CIDADE;-49.1991974196099;-25.442197887173
COLOMBO;4105805;CIDADE;-49.2274379772727;-25.2943402938066
PONTA GROSSA;4119905;CIDADE;-50.1614420592942;-25.0925469992748
CARAMBEÍ;4104659;CIDADE;-50.1130915115041;-24.9508729792348
CASTRO;4104907;CIDADE;-50.00281112776111;-24.7954174992811
VENTANIA;4128534;CIDADE;-50.2476172237288;-24.2441658552569
PIRAÍ DO SUL;4119400;CIDADE;-49.9413309935834;-24.5323574992868
ARAPOTI;4101606;CIDADE;-49.82482850172719;-24.1465691645009
ITAPERUÇU;4111258;CIDADE;-49.3428643436738;-25.2144695242723
RIO BRANCO DO SUL;4122206;CIDADE;-49.3167138827684;-25.1901653508268
CERRO AZUL;4105201;CIDADE;-49.2603168259064;-24.8189473020665
JAGUARIAÍVA;4112009;CIDADE;-49.71218630196081;-24.2530564992928
SENGÉS;4126306;CIDADE;-49.4730192945961;-24.1168102187254
DOUTOR ULYSSES;4128633;CIDADE;-49.4197717989297;-24.5678364515276
ITAPIRAPUÃ PAULISTA;3522653;CIDADE;-49.17216565528079;-24.5715534985717
BOM SUCESSO DE ITARARÉ;3507159;CIDADE;-49.1437619226039;-24.31826284000701
ITARARÉ;3523206;CIDADE;-49.3361197139294;-24.1121379592959
SCHROEDER;4217402;CIDADE;-49.0732596915149;-26.4209759118746
JOINVILLE;4209102;CIDADE;-48.84940914323799;-26.3045176479039
GARUVA;4205803;CIDADE;-48.8498418594081;-26.022075505372
ARAQUARI;4201307;CIDADE;-48.69270741192941;-26.3759515533225
SÃO FRANCISCO DO SUL;4216206;CIDADE;-48.6375707581745;-26.244017883405
ITAPOÁ;4208450;CIDADE;-48.6041676070776;-26.0060478862703
GUARATUBA;4109609;CIDADE;-48.5757259604424;-25.8742419742585
PIRAQUARA;4119509;CIDADE;-49.0653056139231;-25.4465503557216
QUATRO BARRAS;4120804;CIDADE;-49.0851888348275;-25.3737448465022
CAMPINA GRANDE DO SUL;4104006;CIDADE;-49.05346587235721;-25.3032475042704
MORRETES;4116208;CIDADE;-48.8315391962639;-25.4784816826495
MATINHOS;4115705;CIDADE;-48.5337711877653;-25.8164097021648
ANTONINA;4101200;CIDADE;-48.7129000617478;-25.4301661315915
PARANAGUÁ;4118204;CIDADE;-48.5247328366567;-25.5068414992661
PONTAL DO PARANÁ;4119954;CIDADE;-48.44832703019011;-25.594151014142
GUARAQUEÇABA;4109500;CIDADE;-48.3260489326164;-25.3004374736636
BOCAIÚVA DO SUL;4103107;CIDADE;-49.1057874827993;-25.2149015829625
TUNAS DO PARANÁ;4127882;CIDADE;-49.0860587993652;-24.972381189396
RIBEIRA;3542800;CIDADE;-49.0083019947608;-24.6574894985679
ADRIANÓPOLIS;4100202;CIDADE;-48.9917545384254;-24.6616897047367
ITAÓCA;3522158;CIDADE;-48.8428556815305;-24.6425942340883
BARRA DO TURVO;3505401;CIDADE;-48.5023434527708;-24.7593866552991
BARRA DO CHAPÉU;3505351;CIDADE;-49.0271391368039;-24.471425998576
APIAÍ;3502705;CIDADE;-48.8486599046398;-24.5133159992872
NOVA CAMPINA;3532827;CIDADE;-48.90573847904909;-24.1232104172068
IPORANGA;3521200;CIDADE;-48.5896007140876;-24.5844601775625
RIBEIRÃO BRANCO;3543006;CIDADE;-48.7654774814823;-24.2202684568504
GUAPIARA;3517604;CIDADE;-48.5276813218495;-24.1825264992943
CANANÉIA;3509908;CIDADE;-47.92848281442971;-25.0169080692572
CAJATI;3509254;CIDADE;-48.1049998090053;-24.7263609715055
JACUPIRANGA;3524600;CIDADE;-48.00470451154011;-24.6981502802409
PARIQUERA-AÇU;3536208;CIDADE;-47.8799976028944;-24.7125466302409
RIBEIRÃO GRANDE;3543253;CIDADE;-48.3670711559505;-24.1012003099891
CAPÃO BONITO;3510203;CIDADE;-48.3514345179275;-24.0068009692982
ELDORADO;3514809;CIDADE;-48.103228422535;-24.5253866104338
REGISTRO;3542602;CIDADE;-47.841054751675;-24.4942514272874
SETE BARRAS;3551801;CIDADE;-47.9272169634722;-24.3886037814777
ILHA COMPRIDA;3520426;CIDADE;-47.5543169659299;-24.73923993968
IGUAPE;3520301;CIDADE;-47.55313740881761;-24.7069541957087
JUQUIÁ;3526100;CIDADE;-47.63534196766221;-24.3207030782639
MIRACATU;3529906;CIDADE;-47.4571039991089;-24.2839294646681
PEDRO DE TOLEDO;3537206;CIDADE;-47.2290763497417;-24.2728006728377
PERUÍBE;3537602;CIDADE;-46.9973018645123;-24.3195088832912
ITARIRI;3523305;CIDADE;-47.1757260565554;-24.2920056331889
ITANHAÉM;3522109;CIDADE;-46.7909914828787;-24.1861206661269
MONGAGUÁ;3531100;CIDADE;-46.61999272537101;-24.0941161442961
PRAIA GRANDE;3541000;CIDADE;-46.4120495836124;-24.0030214992982
TUNEIRAS DO OESTE;4127908;CIDADE;-52.8745678467236;-23.8640306285851
TAPEJARA;4126801;CIDADE;-52.8641131839901;-23.7324791902345
RONDON;4122602;CIDADE;-52.7624923118905;-23.4126599786897
INDIANÓPOLIS;4110409;CIDADE;-52.7010569081576;-23.4797105004798
SÃO MANOEL DO PARANÁ;4125555;CIDADE;-52.6470195624171;-23.3961302635258
ARARUNA;4101705;CIDADE;-52.4996181031374;-23.9282009498813
PEABIRU;4118808;CIDADE;-52.3478961545674;-23.9141264291479
TERRA BOA;4127205;CIDADE;-52.4621421588906;-23.7668332659018
CIANORTE;4105508;CIDADE;-52.60915089055609;-23.6538131521335
SÃO TOMÉ;4126108;CIDADE;-52.5924836675634;-23.5355113611021
JAPURÁ;4112405;CIDADE;-52.5566276715464;-23.4685877718679
JUSSARA;4113007;CIDADE;-52.4730408047112;-23.6163267080934
CIDADE GAÚCHA;4105607;CIDADE;-52.940525149061;-23.3741973858668
GUAPOREMA;4109104;CIDADE;-52.7782437828839;-23.3429843444166
MIRADOR;4115903;CIDADE;-52.77693492832239;-23.2574075411535
AMAPORÃ;4100905;CIDADE;-52.7867873506457;-23.0973702874775
PLANALTINA DO PARANÁ;4119707;CIDADE;-52.9178407026414;-23.0188101876039
GUAIRAÇÁ;4108908;CIDADE;-52.6910396163512;-22.9382439470254
PARAÍSO DO NORTE;4118006;CIDADE;-52.6035431383629;-23.2871611658256
NOVA ALIANÇA DO IVAÍ;4116505;CIDADE;-52.6019227273391;-23.1774555291556
TAMBOARA;4126702;CIDADE;-52.5006292917574;-23.2018206524105
SÃO CARLOS DO IVAÍ;4124608;CIDADE;-52.4771145893703;-23.3088474506736
PARANAVAÍ;4118402;CIDADE;-52.462401669956;-23.0818794743189
SÃO JOÃO DO CAIUÁ;4124905;CIDADE;-52.3397510425866;-22.8544043251203
ENGENHEIRO BELTRÃO;4107504;CIDADE;-52.2600351547591;-23.8011440696727
QUINTA DO SOL;4121109;CIDADE;-52.1351287636401;-23.8438884255332
IVATUBA;4111605;CIDADE;-52.21766927904181;-23.6182744105589
DOUTOR CAMARGO;4107306;CIDADE;-52.2227214970694;-23.5559013262926
SÃO JORGE DO IVAÍ;4125308;CIDADE;-52.29434196243361;-23.4354578607212
OURIZONA;4117404;CIDADE;-52.19503872766581;-23.4045682209165
FLORESTA;4107900;CIDADE;-52.08308485152529;-23.6102671387661
PAIÇANDU;4117503;CIDADE;-52.0524118315665;-23.4576987568047
FÊNIX;4107702;CIDADE;-51.98446448696019;-23.9206947058803
SÃO PEDRO DO IVAÍ;4125803;CIDADE;-51.8569627582888;-23.8678134415708
SÃO JOÃO DO IVAÍ;4125001;CIDADE;-51.8202792051938;-23.9930894807868
BOM SUCESSO;4103206;CIDADE;-51.7644654446774;-23.70743701733471
ITAMBÉ;4111100;CIDADE;-51.9900043142568;-23.660098580419
MARINGÁ;4115200;CIDADE;-51.9398818702521;-23.4222799993112
SARANDI;4126256;CIDADE;-51.87368203624709;-23.4431720093107
MARIALVA;4114807;CIDADE;-51.79805691391041;-23.4847585343098
FLORAÍ;4107801;CIDADE;-52.30298437298151;-23.319845662899
ALTO PARANÁ;4100608;CIDADE;-52.32168244405451;-23.127120829966
NOVA ESPERANÇA;4116901;CIDADE;-52.2048663633507;-23.1842513914668
MANDAGUAÇU;4114104;CIDADE;-52.0942530606026;-23.3427891411354
PRESIDENTE CASTELO BRANCO;4120408;CIDADE;-52.157726252669;-23.2815496040452
UNIFLOR;4128302;CIDADE;-52.1600108240348;-23.0860486565645
ATALAIA;4102208;CIDADE;-52.0557011364669;-23.1515870948564
CRUZEIRO DO SUL;4106704;CIDADE;-52.16397766953099;-22.9651754188619
PARANACITY;4118105;CIDADE;-52.155988728928;-22.926810051397
FLÓRIDA;4108106;CIDADE;-51.95582809097219;-23.0878019090625
ÂNGULO;4101150;CIDADE;-51.9173646798431;-23.1929038643415
IGUARAÇU;4110003;CIDADE;-51.8247742046263;-23.194780607985
MUNHOZ DE MELO;4116307;CIDADE;-51.775757907573;-23.1456928023954
LOBATO;4113601;CIDADE;-51.9537492142271;-23.0041580762097
COLORADO;4105904;CIDADE;-51.9744162121383;-22.8378975293245
SANTA FÉ;4123402;CIDADE;-51.8063020531831;-23.0361147574987
NOSSA SENHORA DAS GRAÇAS;4116406;CIDADE;-51.79514752401219;-22.9105625086206
CAFEARA;4103404;CIDADE;-51.71500550850761;-22.7882352402966
ITAÚNA DO SUL;4111308;CIDADE;-52.8850248105017;-22.7268769270685
DIAMANTE DO NORTE;4107108;CIDADE;-52.86411123870789;-22.6572061495308
ANAURILÂNDIA;5000807;CIDADE;-52.7181693586844;-22.1826502672884
TERRA RICA;4127304;CIDADE;-52.6246705735779;-22.7243649686615
EUCLIDES DA CUNHA PAULISTA;3515350;CIDADE;-52.59089838027659;-22.5549969195394
SANTO ANTÔNIO DO CAIUÁ;4124202;CIDADE;-52.3446578437543;-22.733974768485
BATAGUASSU;5001904;CIDADE;-52.4254366020331;-21.7152884351258
INAJÁ;4110300;CIDADE;-52.2023437503346;-22.7491161244361
TEODORO SAMPAIO;3554300;CIDADE;-52.1711948221637;-22.5310069993316
PARANAPOEMA;4118303;CIDADE;-52.08072372177921;-22.6556215743645
JARDIM OLINDA;4112603;CIDADE;-52.03814096409091;-22.5526315995134
SANTA INÊS;4123600;CIDADE;-51.90276838278399;-22.6387065299662
ITAGUAJÉ;4110904;CIDADE;-51.9693404488617;-22.6147826750316
SANTO INÁCIO;4124509;CIDADE;-51.7952999014099;-22.700068574949
MIRANTE DO PARANAPANEMA;3530201;CIDADE;-51.905794305935;-22.2905585938095
SANDOVALINA;3545506;CIDADE;-51.7599517360995;-22.4585417393296
PRESIDENTE EPITÁCIO;3541307;CIDADE;-52.1152758269966;-21.7687819943495
MARABÁ PAULISTA;3528700;CIDADE;-51.96846748471151;-22.1103314986828
PRESIDENTE VENCESLAU;3541505;CIDADE;-51.8402588050568;-21.875939504347
PIQUEROBI;3538303;CIDADE;-51.7316269037642;-21.8849896981616
CAIUÁ;3509106;CIDADE;-51.9868926967256;-21.829910272745
BORRAZÓPOLIS;4103305;CIDADE;-51.5844090969291;-23.9378541940056
KALORÉ;4113106;CIDADE;-51.6651419267049;-23.8234388786904
MARUMBI;4115507;CIDADE;-51.6410803664656;-23.7063690364016
CRUZMALTINA;4106852;CIDADE;-51.4442466489686;-23.9933276011913
NOVO ITACOLOMI;4117297;CIDADE;-51.5069594279647;-23.765313768592
RIO BOM;4122107;CIDADE;-51.4153647878351;-23.76209827958621
JANDAIA DO SUL;4112108;CIDADE;-51.6433953621984;-23.6011789153983
CAMBIRA;4103800;CIDADE;-51.5816306133721;-23.6006118795186
MANDAGUARI;4114203;CIDADE;-51.68125208842859;-23.5174519993091
APUCARANA;4101408;CIDADE;-51.45998514235919;-23.5515929843083
ARAPONGAS;4101507;CIDADE;-51.4382797346677;-23.4135165313032
MAUÁ DA SERRA;4115754;CIDADE;-51.2264634713856;-23.901296442416
MARILÂNDIA DO SUL;4114906;CIDADE;-51.3092905257137;-23.7457790918443
TAMARANA;4126678;CIDADE;-51.0985602004511;-23.7151771908599
CALIFÓRNIA;4103503;CIDADE;-51.3580855530853;-23.6661438830762
SABÁUDIA;4122701;CIDADE;-51.5567020218746;-23.3183956209609
ASTORGA;4102109;CIDADE;-51.66967926253669;-23.2367119643154
PITANGUEIRAS;4119657;CIDADE;-51.5857680569437;-23.2303038456702
JAGUAPITÃ;4111902;CIDADE;-51.5406168453571;-23.117782755904
ROLÂNDIA;4122404;CIDADE;-51.3627803563626;-23.3135924843137
GUARACI;4109203;CIDADE;-51.6503853708561;-22.9744292666116
CENTENÁRIO DO SUL;4105102;CIDADE;-51.59352956001509;-22.8149823502744
PRADO FERREIRA;4120333;CIDADE;-51.4432261434374;-23.0339140295922
MIRASELVA;4116000;CIDADE;-51.4857072490769;-22.9660925754459
FLORESTÓPOLIS;4108007;CIDADE;-51.3838226518282;-22.8591043037532
CAMBÉ;4103701;CIDADE;-51.2777284423314;-23.2816319993144
LONDRINA;4113700;CIDADE;-51.1627734238781;-23.3121559993137
IBIPORÃ;4109807;CIDADE;-51.0580336739701;-23.26933147431461
BELA VISTA DO PARAÍSO;4102802;CIDADE;-51.1941450328947;-22.9920875305542
SERTANÓPOLIS;4126504;CIDADE;-51.0422435334555;-23.0584819748784
SÃO JERÔNIMO DA SERRA;4124707;CIDADE;-50.73848042701961;-23.7234034029375
NOVA SANTA BÁRBARA;4117214;CIDADE;-50.7641471219669;-23.5854238541806
SANTA CECÍLIA DO PAVÃO;4123204;CIDADE;-50.7828651430903;-23.51289571140291
SÃO SEBASTIÃO DA AMOREIRA;4126009;CIDADE;-50.7624009771172;-23.4606458603237
SAPOPEMA;4126207;CIDADE;-50.579646631054;-23.9072874603038
FIGUEIRA;4107751;CIDADE;-50.4092010911711;-23.84341076124
SANTO ANTÔNIO DO PARAÍSO;4124301;CIDADE;-50.6468281629708;-23.4947194360864
NOVA FÁTIMA;4117008;CIDADE;-50.5623142175567;-23.4323585702075
CONGONHINHAS;4106001;CIDADE;-50.5544280470447;-23.546902101525
JATAIZINHO;4112702;CIDADE;-50.9740548451338;-23.2572651208298
ASSAÍ;4101903;CIDADE;-50.84162348631419;-23.3727179043723
URAÍ;4128401;CIDADE;-50.7973651802287;-23.2001591018425
RANCHO ALEGRE;4121307;CIDADE;-50.9163921629724;-23.0757149203525
PRIMEIRO DE MAIO;4120507;CIDADE;-51.0277519969787;-22.8525332544114
SERTANEJA;4126405;CIDADE;-50.81710229964511;-23.0369370342592
LEÓPOLIS;4113403;CIDADE;-50.75512497290801;-23.0799224930107
FLORÍNIA;3516101;CIDADE;-50.72482247338;-22.9035687780849
PEDRINHAS PAULISTA;3537156;CIDADE;-50.792165655457;-22.8112152129571
NOVA AMÉRICA DA COLINA;4116604;CIDADE;-50.7144428465776;-23.3326866667675
CORNÉLIO PROCÓPIO;4106407;CIDADE;-50.6514844783365;-23.1832574993166
SANTA AMÉLIA;4123105;CIDADE;-50.4234587703804;-23.2681573182352
SANTA MARIANA;4123907;CIDADE;-50.52107135120261;-23.1464274386251
ITAMBARACÁ;4111001;CIDADE;-50.4090904668323;-23.0147685081955
LUPIONÓPOLIS;4113809;CIDADE;-51.65687284023999;-22.7519945222991
ESTRELA DO NORTE;3515301;CIDADE;-51.6641761909517;-22.4905989013236
PORECATU;4120002;CIDADE;-51.3775989927537;-22.7562094961585
NARANDIBA;3532207;CIDADE;-51.5242398508102;-22.4042831992394
TARABAI;3553906;CIDADE;-51.5595725755548;-22.3016682948088
PIRAPOZINHO;3539202;CIDADE;-51.4995842900895;-22.2766754843375
ANHUMAS;3502408;CIDADE;-51.386074423278;-22.2932371751682
ALVORADA DO SUL;4100806;CIDADE;-51.2292163306355;-22.7803787667205
NANTES;3532157;CIDADE;-51.2385874975948;-22.62011758184971
IEPÊ;3519907;CIDADE;-51.0774138909334;-22.6631014706538
TACIBA;3552908;CIDADE;-51.284773424105;-22.3882662609409
REGENTE FEIJÓ;3542404;CIDADE;-51.3031489766821;-22.2202340922408
INDIANA;3520608;CIDADE;-51.2517585134202;-22.1720934480203
SANTO ANASTÁCIO;3547700;CIDADE;-51.6498922117679;-21.9730210193447
